{
"type": "FeatureCollection",
"name": "ICE_facilities_2",
"crs": { "type": "name", "properties": { "name": "urn:ogc:def:crs:OGC:1.3:CRS84" } },
"features": [
{ "type": "Feature", "properties": { "Name": "ADELANTO ICE PROCESSING CENTER", "Address": "10250 RANCHO ROAD", "City": "ADELANTO", "State": "CA", "Zip": 92301, "AOR": "LOS", "Type": "DIGSA", "MF": "Female\/Male", "ADP_2020": "1,600", "OU72": "Over 72", "Inspect_Standard": "PBNDS 2011", "Inspect_Date": "11\/21\/19", "Med_Person": "75.95", "ICE_Status": "ICE Dedicated Facility", "Latitude": 34.6446103, "Longitude": -117.5408134, "ADP": 1600 }, "geometry": { "type": "Point", "coordinates": [ -117.54081, 34.64461 ] } },
{ "type": "Feature", "properties": { "Name": "ANNEX - FOLKSTON IPC", "Address": "3424 HIGHWAY 252 EAST", "City": "FOLKSTON", "State": "GA", "Zip": 31537, "AOR": "ATL", "Type": "DIGSA", "MF": "Male", "ADP_2020": "242", "OU72": "Over 72", "Inspect_Standard": "PBNDS 2011", "Inspect_Date": "6\/6\/19", "Med_Person": "26", "ICE_Status": "ICE Dedicated Facility", "Latitude": 30.89318874, "Longitude": -82.00976099, "ADP": 242 }, "geometry": { "type": "Point", "coordinates": [ -82.00976, 30.89319 ] } },
{ "type": "Feature", "properties": { "Name": "BERKS COUNTY FAMILY SHELTER", "Address": "1040 BERKS ROAD", "City": "LEESPORT", "State": "PA", "Zip": 19533, "AOR": "PHI", "Type": "FAMILY", "MF": "Female\/Male", "ADP_2020": "56", "OU72": "Over 72", "Inspect_Standard": "JFRMU Family", "Inspect_Date": "12\/19\/19", "Med_Person": "10", "ICE_Status": "ICE Dedicated Facility", "Latitude": 40.42410238, "Longitude": -75.98741065, "ADP": 56 }, "geometry": { "type": "Point", "coordinates": [ -75.98741, 40.4241 ] } },
{ "type": "Feature", "properties": { "Name": "BROWARD TRANSITIONAL CENTER", "Address": "3900 NORTH POWERLINE ROAD", "City": "POMPANO BEACH", "State": "FL", "Zip": 33073, "AOR": "MIA", "Type": "CDF", "MF": "Female\/Male", "ADP_2020": "519", "OU72": "Over 72", "Inspect_Standard": "PBNDS 2011", "Inspect_Date": "10\/31\/19", "Med_Person": "21", "ICE_Status": "ICE Dedicated Facility", "Latitude": 26.29850049, "Longitude": -80.18280261, "ADP": 519 }, "geometry": { "type": "Point", "coordinates": [ -80.1828, 26.2985 ] } },
{ "type": "Feature", "properties": { "Name": "BUFFALO (BATAVIA) SERVICE PROCESSING CENTER", "Address": "4250 FEDERAL DRIVE", "City": "BATAVIA", "State": "NY", "Zip": 14020, "AOR": "BUF", "Type": "SPC", "MF": "Female\/Male", "ADP_2020": "434", "OU72": "Over 72", "Inspect_Standard": "PBNDS 2011", "Inspect_Date": "4\/4\/19", "Med_Person": "24", "ICE_Status": "ICE Dedicated Facility", "Latitude": 42.99618551, "Longitude": -78.21264758, "ADP": 434 }, "geometry": { "type": "Point", "coordinates": [ -78.21265, 42.99619 ] } },
{ "type": "Feature", "properties": { "Name": "CAROLINE DETENTION FACILITY", "Address": "11093 S.W. LEWIS MEMORIAL DRIVE", "City": "BOWLING GREEN", "State": "VA", "Zip": 22427, "AOR": "WAS", "Type": "DIGSA", "MF": "Female\/Male", "ADP_2020": "268", "OU72": "Over 72", "Inspect_Standard": "PBNDS 2011", "Inspect_Date": "5\/2\/19", "Med_Person": "13", "ICE_Status": "ICE Dedicated Facility", "Latitude": 38.09226753, "Longitude": -77.27067958000001, "ADP": 268 }, "geometry": { "type": "Point", "coordinates": [ -77.27068, 38.09227 ] } },
{ "type": "Feature", "properties": { "Name": "DENVER CONTRACT DETENTION FACILITY", "Address": "3130 N. OAKLAND ST.", "City": "AURORA", "State": "CO", "Zip": 80010, "AOR": "DEN", "Type": "CDF", "MF": "Female\/Male", "ADP_2020": "590", "OU72": "Over 72", "Inspect_Standard": "PBNDS 2011", "Inspect_Date": "11\/27\/19", "Med_Person": "25", "ICE_Status": "ICE Dedicated Facility", "Latitude": 39.73889536, "Longitude": -104.8623698, "ADP": 590 }, "geometry": { "type": "Point", "coordinates": [ -104.86237, 39.7389 ] } },
{ "type": "Feature", "properties": { "Name": "DENVER CONTRACT DETENTION FACILITY (CDF) II", "Address": "11901 E. 30th AVE", "City": "AURORA", "State": "CO", "Zip": 80010, "AOR": "DEN", "Type": "CDF", "MF": "Female\/Male", "ADP_2020": "203", "OU72": "Over 72", "Inspect_Standard": "PBNDS 2011", "Inspect_Date": "11\/27\/19", "Med_Person": "N\/A", "ICE_Status": "ICE Dedicated Facility", "Latitude": 39.73889536, "Longitude": -104.8623698, "ADP": 203 }, "geometry": { "type": "Point", "coordinates": [ -104.86237, 39.7389 ] } },
{ "type": "Feature", "properties": { "Name": "EL PASO SERVICE PROCESSING CENTER", "Address": "8915 MONTANA AVE.", "City": "EL PASO", "State": "TX", "Zip": 79925, "AOR": "ELP", "Type": "SPC", "MF": "Female\/Male", "ADP_2020": "757", "OU72": "Over 72", "Inspect_Standard": "PBNDS 2011", "Inspect_Date": "12\/12\/19", "Med_Person": "26", "ICE_Status": "ICE Dedicated Facility", "Latitude": 31.79758521, "Longitude": -106.3635301, "ADP": 757 }, "geometry": { "type": "Point", "coordinates": [ -106.36353, 31.79759 ] } },
{ "type": "Feature", "properties": { "Name": "ELIZABETH CONTRACT DETENTION FACILITY", "Address": "625 EVANS STREET", "City": "ELIZABETH", "State": "NJ", "Zip": 7201, "AOR": "NEW", "Type": "CDF", "MF": "Female\/Male", "ADP_2020": "233", "OU72": "Over 72", "Inspect_Standard": "PBNDS 2011", "Inspect_Date": "10\/3\/19", "Med_Person": "15", "ICE_Status": "ICE Dedicated Facility", "Latitude": 40.67185372, "Longitude": -74.17737862, "ADP": 233 }, "geometry": { "type": "Point", "coordinates": [ -74.17738, 40.67185 ] } },
{ "type": "Feature", "properties": { "Name": "ELOY FEDERAL CONTRACT FACILITY", "Address": "1705 EAST HANNA RD.", "City": "ELOY", "State": "AZ", "Zip": 85131, "AOR": "PHO", "Type": "DIGSA", "MF": "Female\/Male", "ADP_2020": "1,207", "OU72": "Over 72", "Inspect_Standard": "PBNDS 2011", "Inspect_Date": "2\/6\/20", "Med_Person": "44", "ICE_Status": "ICE Dedicated Facility", "Latitude": 32.6739149, "Longitude": -111.5501339, "ADP": 1207 }, "geometry": { "type": "Point", "coordinates": [ -111.55013, 32.67391 ] } },
{ "type": "Feature", "properties": { "Name": "FLORENCE SERVICE PROCESSING CENTER", "Address": "3250 NORTH PINAL PARKWAY", "City": "FLORENCE", "State": "AZ", "Zip": 85132, "AOR": "PHO", "Type": "SPC", "MF": "Male", "ADP_2020": "367", "OU72": "Over 72", "Inspect_Standard": "PBNDS 2011", "Inspect_Date": "4\/11\/19", "Med_Person": "25", "ICE_Status": "ICE Dedicated Facility", "Latitude": 32.93337199, "Longitude": -111.204523, "ADP": 367 }, "geometry": { "type": "Point", "coordinates": [ -111.20452, 32.93337 ] } },
{ "type": "Feature", "properties": { "Name": "HOUSTON CONTRACT DETENTION FACILITY", "Address": "15850 EXPORT PLAZA DRIVE", "City": "HOUSTON", "State": "TX", "Zip": 77032, "AOR": "HOU", "Type": "CDF", "MF": "Female\/Male", "ADP_2020": "761", "OU72": "Over 72", "Inspect_Standard": "PBNDS 2011", "Inspect_Date": "1\/9\/20", "Med_Person": "27", "ICE_Status": "ICE Dedicated Facility", "Latitude": 29.96494395, "Longitude": -95.34158463, "ADP": 761 }, "geometry": { "type": "Point", "coordinates": [ -95.34158, 29.96494 ] } },
{ "type": "Feature", "properties": { "Name": "IMMIGRATION CENTERS OF AMERICA FARMVILLE", "Address": "508 WATERWORKS ROAD", "City": "FARMVILLE", "State": "VA", "Zip": 23901, "AOR": "WAS", "Type": "DIGSA", "MF": "Male", "ADP_2020": "607", "OU72": "Over 72", "Inspect_Standard": "PBNDS 2011", "Inspect_Date": "2\/28\/19", "Med_Person": "31", "ICE_Status": "ICE Dedicated Facility", "Latitude": 37.31612237, "Longitude": -78.41613419, "ADP": 607 }, "geometry": { "type": "Point", "coordinates": [ -78.41613, 37.31612 ] } },
{ "type": "Feature", "properties": { "Name": "IMPERIAL REGIONAL DETENTION FACILITY", "Address": "1572 GATEWAY", "City": "CALEXICO", "State": "CA", "Zip": 92231, "AOR": "SND", "Type": "DIGSA", "MF": "Female\/Male", "ADP_2020": "636", "OU72": "Over 72", "Inspect_Standard": "PBNDS 2011", "Inspect_Date": "1\/16\/20", "Med_Person": "29", "ICE_Status": "ICE Dedicated Facility", "Latitude": 32.6875226, "Longitude": -115.5409972, "ADP": 636 }, "geometry": { "type": "Point", "coordinates": [ -115.541, 32.68752 ] } },
{ "type": "Feature", "properties": { "Name": "KARNES COUNTY CIVIL DETENTION CENTER", "Address": "FM 1144 AT US HIGHWAY 181", "City": "KARNES CITY", "State": "TX", "Zip": 78118, "AOR": "SNA", "Type": "FAMILY", "MF": "Female\/Male", "ADP_2020": "0", "OU72": "Over 72", "Inspect_Standard": "PBNDS 2011", "Inspect_Date": "6\/26\/14", "Med_Person": "N\/A", "ICE_Status": "ICE Dedicated Facility", "Latitude": 28.88643915, "Longitude": -97.95035581, "ADP": 0 }, "geometry": { "type": "Point", "coordinates": [ -97.95036, 28.88644 ] } },
{ "type": "Feature", "properties": { "Name": "KARNES COUNTY RESIDENTIAL CENTER", "Address": "FM 1144 AT US HIGHWAY 181", "City": "KARNES CITY", "State": "TX", "Zip": 78118, "AOR": "SNA", "Type": "FAMILY", "MF": "Male", "ADP_2020": "198", "OU72": "Over 72", "Inspect_Standard": "JFRMU Family", "Inspect_Date": "1\/23\/20", "Med_Person": "62", "ICE_Status": "ICE Dedicated Facility", "Latitude": 28.88643915, "Longitude": -97.95035581, "ADP": 198 }, "geometry": { "type": "Point", "coordinates": [ -97.95036, 28.88644 ] } },
{ "type": "Feature", "properties": { "Name": "KROME NORTH SERVICE PROCESSING CENTER", "Address": "18201 SOUTHWEST 12TH STREET", "City": "MIAMI", "State": "FL", "Zip": 33194, "AOR": "MIA", "Type": "SPC", "MF": "Male", "ADP_2020": "606", "OU72": "Over 72", "Inspect_Standard": "PBNDS 2011", "Inspect_Date": "2\/13\/20", "Med_Person": "44", "ICE_Status": "ICE Dedicated Facility", "Latitude": 25.72009597, "Longitude": -80.61204278, "ADP": 606 }, "geometry": { "type": "Point", "coordinates": [ -80.61204, 25.7201 ] } },
{ "type": "Feature", "properties": { "Name": "LAREDO PROCESSING CENTER", "Address": "4702 EAST SAUNDERS STREET", "City": "LAREDO", "State": "TX", "Zip": 78041, "AOR": "SNA", "Type": "DIGSA", "MF": "Female\/Male", "ADP_2020": "238", "OU72": "Over 72", "Inspect_Standard": "NDS", "Inspect_Date": "6\/4\/19", "Med_Person": "17", "ICE_Status": "ICE Dedicated Facility", "Latitude": 27.55416248, "Longitude": -99.46338735, "ADP": 238 }, "geometry": { "type": "Point", "coordinates": [ -99.46339, 27.55416 ] } },
{ "type": "Feature", "properties": { "Name": "LASALLE ICE PROCESSING CENTER (JENA)", "Address": "830 PINEHILL ROAD", "City": "JENA", "State": "LA", "Zip": 71342, "AOR": "NOL", "Type": "DIGSA", "MF": "Female\/Male", "ADP_2020": "1,226", "OU72": "Over 72", "Inspect_Standard": "PBNDS 2011", "Inspect_Date": "9\/26\/19", "Med_Person": "37", "ICE_Status": "ICE Dedicated Facility", "Latitude": 31.60483977, "Longitude": -92.1380392, "ADP": 1226 }, "geometry": { "type": "Point", "coordinates": [ -92.13804, 31.60484 ] } },
{ "type": "Feature", "properties": { "Name": "MAIN - FOLKSTON IPC (D RAY JAMES)", "Address": "3026 HIGHWAY 252 EAST", "City": "FOLKSTON", "State": "GA", "Zip": 31537, "AOR": "ATL", "Type": "DIGSA", "MF": "Male", "ADP_2020": "536", "OU72": "Over 72", "Inspect_Standard": "PBNDS 2011", "Inspect_Date": "6\/6\/19", "Med_Person": "26", "ICE_Status": "ICE Dedicated Facility", "Latitude": 30.89318874, "Longitude": -82.00976099, "ADP": 536 }, "geometry": { "type": "Point", "coordinates": [ -82.00976, 30.89319 ] } },
{ "type": "Feature", "properties": { "Name": "MESA VERDE ICE PROCESSING CENTER", "Address": "425 GOLDEN STATE AVE", "City": "BAKERSFIELD", "State": "CA", "Zip": 93301, "AOR": "SFR", "Type": "CDF", "MF": "Female\/Male", "ADP_2020": "345", "OU72": "Over 72", "Inspect_Standard": "PBNDS 2011", "Inspect_Date": "6\/27\/19", "Med_Person": "27", "ICE_Status": "ICE Dedicated Facility", "Latitude": 35.38449497, "Longitude": -119.0208242, "ADP": 345 }, "geometry": { "type": "Point", "coordinates": [ -119.02082, 35.38449 ] } },
{ "type": "Feature", "properties": { "Name": "MONTGOMERY ICE PROCESSING CENTER", "Address": "806 HILBIG RD", "City": "CONROE", "State": "TX", "Zip": 77301, "AOR": "HOU", "Type": "CDF", "MF": "Female\/Male", "ADP_2020": "871", "OU72": "Over 72", "Inspect_Standard": "PBNDS 2011", "Inspect_Date": "12\/19\/19", "Med_Person": "40", "ICE_Status": "ICE Dedicated Facility", "Latitude": 30.30796398, "Longitude": -95.4342992, "ADP": 871 }, "geometry": { "type": "Point", "coordinates": [ -95.4343, 30.30796 ] } },
{ "type": "Feature", "properties": { "Name": "OTAY MESA DETENTION CENTER (SAN DIEGO CDF)", "Address": "7488 CALZADA DE LA FUENTE", "City": "SAN DIEGO", "State": "CA", "Zip": 92154, "AOR": "SND", "Type": "USMS CDF", "MF": "Female\/Male", "ADP_2020": "1,028", "OU72": "Over 72", "Inspect_Standard": "PBNDS 2011", "Inspect_Date": "1\/24\/20", "Med_Person": "47", "ICE_Status": "ICE Dedicated Facility", "Latitude": 32.56758374, "Longitude": -117.0029983, "ADP": 1028 }, "geometry": { "type": "Point", "coordinates": [ -117.003, 32.56758 ] } },
{ "type": "Feature", "properties": { "Name": "OTERO COUNTY PROCESSING CENTER", "Address": "26 MCGREGOR RANGE ROAD", "City": "CHAPARRAL", "State": "NM", "Zip": 88081, "AOR": "ELP", "Type": "DIGSA", "MF": "Male", "ADP_2020": "911", "OU72": "Over 72", "Inspect_Standard": "PBNDS 2011", "Inspect_Date": "1\/30\/20", "Med_Person": "35", "ICE_Status": "ICE Dedicated Facility", "Latitude": 32.22387951, "Longitude": -106.2630949, "ADP": 911 }, "geometry": { "type": "Point", "coordinates": [ -106.26309, 32.22388 ] } },
{ "type": "Feature", "properties": { "Name": "PINE PRAIRIE ICE PROCESSING CENTER", "Address": "1133 HAMPTON DUPRE ROAD", "City": "PINE PRAIRIE", "State": "LA", "Zip": 70576, "AOR": "NOL", "Type": "DIGSA", "MF": "Male", "ADP_2020": "687", "OU72": "Over 72", "Inspect_Standard": "PBNDS 2011", "Inspect_Date": "4\/25\/19", "Med_Person": "24", "ICE_Status": "ICE Dedicated Facility", "Latitude": 30.78096799, "Longitude": -92.41825328, "ADP": 687 }, "geometry": { "type": "Point", "coordinates": [ -92.41825, 30.78097 ] } },
{ "type": "Feature", "properties": { "Name": "PORT ISABEL", "Address": "27991 BUENA VISTA BOULEVARD", "City": "LOS FRESNOS", "State": "TX", "Zip": 78566, "AOR": "SNA", "Type": "SPC", "MF": "Female\/Male", "ADP_2020": "936", "OU72": "Over 72", "Inspect_Standard": "PBNDS 2011", "Inspect_Date": "1\/30\/20", "Med_Person": "45", "ICE_Status": "ICE Dedicated Facility", "Latitude": 26.14855482, "Longitude": -97.37068377, "ADP": 936 }, "geometry": { "type": "Point", "coordinates": [ -97.37068, 26.14855 ] } },
{ "type": "Feature", "properties": { "Name": "PRAIRIELAND DETENTION FACILITY", "Address": "1209 SUNFLOWER LN", "City": "ALVARADO", "State": "TX", "Zip": 76009, "AOR": "DAL", "Type": "DIGSA", "MF": "Female\/Male", "ADP_2020": "617", "OU72": "Over 72", "Inspect_Standard": "PBNDS 2011", "Inspect_Date": "2\/13\/20", "Med_Person": "22", "ICE_Status": "ICE Dedicated Facility", "Latitude": 32.41577595, "Longitude": -97.2017056, "ADP": 617 }, "geometry": { "type": "Point", "coordinates": [ -97.20171, 32.41578 ] } },
{ "type": "Feature", "properties": { "Name": "RIO GRANDE DETENTION CENTER", "Address": "1001 SAN RIO BOULEVARD", "City": "LAREDO", "State": "TX", "Zip": 78046, "AOR": "SNA", "Type": "USMS CDF", "MF": "Male", "ADP_2020": "413", "OU72": "Over 72", "Inspect_Standard": "PBNDS 2008", "Inspect_Date": "3\/14\/19", "Med_Person": "30.75", "ICE_Status": "ICE Dedicated Facility", "Latitude": 27.37489259, "Longitude": -99.34945369, "ADP": 413 }, "geometry": { "type": "Point", "coordinates": [ -99.34945, 27.37489 ] } },
{ "type": "Feature", "properties": { "Name": "ROBERT A. DEYTON DETENTION FACILITY", "Address": "11866 HASTINGS BRIDGE RD", "City": "LOVEJOY", "State": "GA", "Zip": 30250, "AOR": "ATL", "Type": "USMS CDF", "MF": "Female\/Male", "ADP_2020": "25", "OU72": "Over 72", "Inspect_Standard": "NDS", "Inspect_Date": "12\/5\/19", "Med_Person": "26", "ICE_Status": "ICE Dedicated Facility", "Latitude": 33.43653206, "Longitude": -84.31420608000001, "ADP": 25 }, "geometry": { "type": "Point", "coordinates": [ -84.31421, 33.43653 ] } },
{ "type": "Feature", "properties": { "Name": "SOUTH TEXAS FAMILY RESIDENTIAL CENTER", "Address": "1925 WEST HIGHWAY 85", "City": "DILLEY", "State": "TX", "Zip": 78017, "AOR": "SNA", "Type": "FAMILY", "MF": "Female\/Male", "ADP_2020": "1,314", "OU72": "Over 72", "Inspect_Standard": "JFRMU Family", "Inspect_Date": "1\/9\/20", "Med_Person": "81", "ICE_Status": "ICE Dedicated Facility", "Latitude": 28.706919, "Longitude": -99.1939148, "ADP": 1314 }, "geometry": { "type": "Point", "coordinates": [ -99.19391, 28.70692 ] } },
{ "type": "Feature", "properties": { "Name": "SOUTH TEXAS ICE PROCESSING CENTER", "Address": "566 VETERANS DRIVE", "City": "PEARSALL", "State": "TX", "Zip": 78061, "AOR": "SNA", "Type": "CDF", "MF": "Female\/Male", "ADP_2020": "1,445", "OU72": "Over 72", "Inspect_Standard": "PBNDS 2011", "Inspect_Date": "2\/28\/19", "Med_Person": "48", "ICE_Status": "ICE Dedicated Facility", "Latitude": 28.90172103, "Longitude": -99.14691453, "ADP": 1445 }, "geometry": { "type": "Point", "coordinates": [ -99.14691, 28.90172 ] } },
{ "type": "Feature", "properties": { "Name": "STEWART DETENTION CENTER", "Address": "146 CCA ROAD", "City": "LUMPKIN", "State": "GA", "Zip": 31815, "AOR": "ATL", "Type": "DIGSA", "MF": "Male", "ADP_2020": "1,530", "OU72": "Over 72", "Inspect_Standard": "PBNDS 2011", "Inspect_Date": "5\/9\/19", "Med_Person": "54", "ICE_Status": "ICE Dedicated Facility", "Latitude": 32.03552643, "Longitude": -84.83842758, "ADP": 1530 }, "geometry": { "type": "Point", "coordinates": [ -84.83843, 32.03553 ] } },
{ "type": "Feature", "properties": { "Name": "T DON HUTTO RESIDENTIAL CENTER", "Address": "1001 WELCH STREET", "City": "TAYLOR", "State": "TX", "Zip": 76574, "AOR": "SNA", "Type": "FAMILY", "MF": "Female", "ADP_2020": "485", "OU72": "Over 72", "Inspect_Standard": "JFRMU Family", "Inspect_Date": "8\/29\/19", "Med_Person": "21", "ICE_Status": "ICE Dedicated Facility", "Latitude": 30.58422872, "Longitude": -97.38740404000001, "ADP": 485 }, "geometry": { "type": "Point", "coordinates": [ -97.3874, 30.58423 ] } },
{ "type": "Feature", "properties": { "Name": "TACOMA ICE PROCESSING CENTER (NORTHWEST DET CTR)", "Address": "1623 E. J STREET", "City": "TACOMA", "State": "WA", "Zip": 98421, "AOR": "SEA", "Type": "CDF", "MF": "Female\/Male", "ADP_2020": "933", "OU72": "Over 72", "Inspect_Standard": "PBNDS 2011", "Inspect_Date": "5\/16\/19", "Med_Person": "36", "ICE_Status": "ICE Dedicated Facility", "Latitude": 47.25988092, "Longitude": -122.4007541, "ADP": 933 }, "geometry": { "type": "Point", "coordinates": [ -122.40075, 47.25988 ] } },
{ "type": "Feature", "properties": { "Name": "WEBB COUNTY DETENTION CENTER (CCA)", "Address": "9998 SOUTH HIGHWAY 83", "City": "LAREDO", "State": "TX", "Zip": 78046, "AOR": "SNA", "Type": "DIGSA", "MF": "Female\/Male", "ADP_2020": "92", "OU72": "Over 72", "Inspect_Standard": "PBNDS 2011", "Inspect_Date": "2\/6\/20", "Med_Person": "21", "ICE_Status": "ICE Dedicated Facility", "Latitude": 27.37489259, "Longitude": -99.34945369, "ADP": 92 }, "geometry": { "type": "Point", "coordinates": [ -99.34945, 27.37489 ] } },
{ "type": "Feature", "properties": { "Name": "ABRAXAS ACADEMY DETENTION CENTER", "Address": "1000 ACADEMY DRIVE", "City": "MORGANTOWN", "State": "PA", "Zip": 19543, "AOR": "PHI", "Type": "JUVENILE", "MF": "Female\/Male", "ADP_2020": "0", "OU72": "Over 72", "Inspect_Standard": "JFRMU Juvenile", "Inspect_Date": "7\/18\/19", "Med_Person": "N\/A", "ICE_Status": "ICE Non-Dedicated Facility", "Latitude": 40.17115196, "Longitude": -75.89240561, "ADP": 0 }, "geometry": { "type": "Point", "coordinates": [ -75.89241, 40.17115 ] } },
{ "type": "Feature", "properties": { "Name": "ADAMS COUNTY DET CENTER", "Address": "20 HOBO FORK RD.", "City": "NATCHEZ", "State": "MS", "Zip": 39120, "AOR": "NOL", "Type": "IGSA", "MF": "Female\/Male", "ADP_2020": "1,042", "OU72": "Over 72", "Inspect_Standard": "PBNDS 2011", "Inspect_Date": "11\/21\/19", "Med_Person": "N\/A", "ICE_Status": "ICE Non-Dedicated Facility", "Latitude": 31.51025831, "Longitude": -91.35403709000001, "ADP": 1042 }, "geometry": { "type": "Point", "coordinates": [ -91.35404, 31.51026 ] } },
{ "type": "Feature", "properties": { "Name": "ALBANY COUNTY JAIL", "Address": "840 ALBANY SHAKER ROAD", "City": "ALBANY", "State": "NY", "Zip": 12211, "AOR": "BUF", "Type": "USMS IGA", "MF": "Female\/Male", "ADP_2020": "0", "OU72": "Over 72", "Inspect_Standard": "NDS", "Inspect_Date": "9\/27\/18", "Med_Person": "N\/A", "ICE_Status": "ICE Non-Dedicated Facility", "Latitude": 42.70591163, "Longitude": -73.76421897, "ADP": 0 }, "geometry": { "type": "Point", "coordinates": [ -73.76422, 42.70591 ] } },
{ "type": "Feature", "properties": { "Name": "ALEXANDRIA CITY JAIL", "Address": "2003 MILL ROAD", "City": "ALEXANDRIA", "State": "VA", "Zip": 22314, "AOR": "WAS", "Type": "USMS IGA", "MF": "Female\/Male", "ADP_2020": "0", "OU72": "Under 72", "Inspect_Standard": "NDS", "Inspect_Date": "9\/27\/17", "Med_Person": "N\/A", "ICE_Status": "ICE Non-Dedicated Facility", "Latitude": 38.8070591, "Longitude": -77.05692349, "ADP": 0 }, "geometry": { "type": "Point", "coordinates": [ -77.05692, 38.80706 ] } },
{ "type": "Feature", "properties": { "Name": "ALLEN PARISH PUBLIC SAFETY COMPLEX", "Address": "7340 HIGHWAY 26 WEST", "City": "OBERLIN", "State": "LA", "Zip": 70655, "AOR": "NOL", "Type": "IGSA", "MF": "Male", "ADP_2020": "109", "OU72": "Over 72", "Inspect_Standard": "PBNDS 2011", "Inspect_Date": "12\/5\/19", "Med_Person": "N\/A", "ICE_Status": "ICE Non-Dedicated Facility", "Latitude": 30.66447154, "Longitude": -92.72390248000001, "ADP": 109 }, "geometry": { "type": "Point", "coordinates": [ -92.7239, 30.66447 ] } },
{ "type": "Feature", "properties": { "Name": "ANCHORAGE CORRECTIONAL COMPLEX", "Address": "1400 E. 4TH AVE", "City": "ANCHORAGE", "State": "AK", "Zip": 99501, "AOR": "SEA", "Type": "USMS IGA", "MF": "Female\/Male", "ADP_2020": "0", "OU72": "Over 72", "Inspect_Standard": "NDS", "Inspect_Date": "9\/8\/17", "Med_Person": "N\/A", "ICE_Status": "ICE Non-Dedicated Facility", "Latitude": 61.22027207, "Longitude": -149.8566028, "ADP": 0 }, "geometry": { "type": "Point", "coordinates": [ -149.8566, 61.22027 ] } },
{ "type": "Feature", "properties": { "Name": "BAKER COUNTY SHERIFF'S OFFICE", "Address": "1 SHERIFF OFFICE DRIVE", "City": "MACCLENNY", "State": "FL", "Zip": 32063, "AOR": "MIA", "Type": "IGSA", "MF": "Female\/Male", "ADP_2020": "254", "OU72": "Over 72", "Inspect_Standard": "NDS", "Inspect_Date": "5\/31\/19", "Med_Person": "N\/A", "ICE_Status": "ICE Non-Dedicated Facility", "Latitude": 30.24671284, "Longitude": -82.11203848, "ADP": 254 }, "geometry": { "type": "Point", "coordinates": [ -82.11204, 30.24671 ] } },
{ "type": "Feature", "properties": { "Name": "BALDWIN COUNTY CORRECTIONAL CENTER", "Address": "200 HAND AVE.", "City": "BAY MINETTE", "State": "AL", "Zip": 36507, "AOR": "NOL", "Type": "IGSA", "MF": "Female\/Male", "ADP_2020": "5", "OU72": "Under 72", "Inspect_Standard": "NDS", "Inspect_Date": "9\/11\/18", "Med_Person": "N\/A", "ICE_Status": "ICE Non-Dedicated Facility", "Latitude": 30.86318768, "Longitude": -87.73890548, "ADP": 5 }, "geometry": { "type": "Point", "coordinates": [ -87.73891, 30.86319 ] } },
{ "type": "Feature", "properties": { "Name": "BEAVER COUNTY JAIL", "Address": "6000 WOODLAWN BOULEVARD", "City": "ALIQUIPPA", "State": "PA", "Zip": 15001, "AOR": "PHI", "Type": "USMS IGA", "MF": "Female\/Male", "ADP_2020": "2", "OU72": "Over 72", "Inspect_Standard": "NDS", "Inspect_Date": "9\/18\/17", "Med_Person": "N\/A", "ICE_Status": "ICE Non-Dedicated Facility", "Latitude": 40.59210899, "Longitude": -80.31974662, "ADP": 2 }, "geometry": { "type": "Point", "coordinates": [ -80.31975, 40.59211 ] } },
{ "type": "Feature", "properties": { "Name": "BEDFORD MUNICIPAL DETENTION CENTER", "Address": "2121 L DON DODSON DRIVE", "City": "BEDFORD", "State": "TX", "Zip": 76021, "AOR": "DAL", "Type": "IGSA", "MF": "Female\/Male", "ADP_2020": "8", "OU72": "Under 72", "Inspect_Standard": "NDS", "Inspect_Date": "10\/11\/17", "Med_Person": "N\/A", "ICE_Status": "ICE Non-Dedicated Facility", "Latitude": 32.8522843, "Longitude": -97.13125024, "ADP": 8 }, "geometry": { "type": "Point", "coordinates": [ -97.13125, 32.85228 ] } },
{ "type": "Feature", "properties": { "Name": "BERGEN COUNTY JAIL", "Address": "160 SOUTH RIVER STREET", "City": "HACKENSACK", "State": "NJ", "Zip": 7601, "AOR": "NYC", "Type": "USMS IGA", "MF": "Female\/Male", "ADP_2020": "209", "OU72": "Over 72", "Inspect_Standard": "NDS", "Inspect_Date": "2\/28\/19", "Med_Person": "N\/A", "ICE_Status": "ICE Non-Dedicated Facility", "Latitude": 40.8890158, "Longitude": -74.04608769, "ADP": 209 }, "geometry": { "type": "Point", "coordinates": [ -74.04609, 40.88902 ] } },
{ "type": "Feature", "properties": { "Name": "BOONE COUNTY JAIL", "Address": "3020 CONRAD LANE", "City": "BURLINGTON", "State": "KY", "Zip": 41005, "AOR": "CHI", "Type": "USMS IGA", "MF": "Female\/Male", "ADP_2020": "121", "OU72": "Over 72", "Inspect_Standard": "NDS", "Inspect_Date": "3\/7\/19", "Med_Person": "N\/A", "ICE_Status": "ICE Non-Dedicated Facility", "Latitude": 39.00796226, "Longitude": -84.7675019, "ADP": 121 }, "geometry": { "type": "Point", "coordinates": [ -84.7675, 39.00796 ] } },
{ "type": "Feature", "properties": { "Name": "BREMER COUNTY JAIL", "Address": "111 4TH STREET NE", "City": "WAVERLY", "State": "IA", "Zip": 50677, "AOR": "SPM", "Type": "USMS IGA", "MF": "Female\/Male", "ADP_2020": "1", "OU72": "Under 72", "Inspect_Standard": "NDS", "Inspect_Date": "9\/21\/17", "Med_Person": "N\/A", "ICE_Status": "ICE Non-Dedicated Facility", "Latitude": 42.7626472, "Longitude": -92.43271311, "ADP": 1 }, "geometry": { "type": "Point", "coordinates": [ -92.43271, 42.76265 ] } },
{ "type": "Feature", "properties": { "Name": "BRISTOL COUNTY DETENTION CENTER", "Address": "400 FAUNCE CORNER ROAD", "City": "NORTH DARTMOUTH", "State": "MA", "Zip": 2747, "AOR": "BOS", "Type": "IGSA", "MF": "Female\/Male", "ADP_2020": "167", "OU72": "Over 72", "Inspect_Standard": "PBNDS 2008", "Inspect_Date": "5\/16\/19", "Med_Person": "N\/A", "ICE_Status": "ICE Non-Dedicated Facility", "Latitude": 41.66782324, "Longitude": -71.01627693, "ADP": 167 }, "geometry": { "type": "Point", "coordinates": [ -71.01628, 41.66782 ] } },
{ "type": "Feature", "properties": { "Name": "BURNET COUNTY JAIL", "Address": "JAIL ADMINISTRATOR", "City": "BURNET", "State": "TX", "Zip": 78611, "AOR": "SNA", "Type": "USMS IGA", "MF": "Male", "ADP_2020": "3", "OU72": "Under 72", "Inspect_Standard": "NDS", "Inspect_Date": "10\/1\/18", "Med_Person": "N\/A", "ICE_Status": "ICE Non-Dedicated Facility", "Latitude": 30.79176508, "Longitude": -98.26015671, "ADP": 3 }, "geometry": { "type": "Point", "coordinates": [ -98.26016, 30.79177 ] } },
{ "type": "Feature", "properties": { "Name": "BUTLER COUNTY JAIL", "Address": "705 HANOVER STREET", "City": "HAMILTON", "State": "OH", "Zip": 45011, "AOR": "DET", "Type": "IGSA", "MF": "Female\/Male", "ADP_2020": "114", "OU72": "Over 72", "Inspect_Standard": "NDS", "Inspect_Date": "5\/2\/19", "Med_Person": "N\/A", "ICE_Status": "ICE Non-Dedicated Facility", "Latitude": 39.42963278, "Longitude": -84.50250845, "ADP": 114 }, "geometry": { "type": "Point", "coordinates": [ -84.50251, 39.42963 ] } },
{ "type": "Feature", "properties": { "Name": "BUTLER COUNTY JAIL", "Address": "701 SE STONE ROAD", "City": "EL DORADO", "State": "KS", "Zip": 67042, "AOR": "CHI", "Type": "USMS IGA", "MF": "Female\/Male", "ADP_2020": "1", "OU72": "Over 72", "Inspect_Standard": "NDS", "Inspect_Date": "9\/14\/18", "Med_Person": "N\/A", "ICE_Status": "ICE Non-Dedicated Facility", "Latitude": 37.84865449, "Longitude": -96.79829747, "ADP": 1 }, "geometry": { "type": "Point", "coordinates": [ -96.7983, 37.84865 ] } },
{ "type": "Feature", "properties": { "Name": "CABARRUS COUNTY JAIL", "Address": "30 CORBAN AVENUE SE", "City": "CONCORD", "State": "NC", "Zip": 28025, "AOR": "ATL", "Type": "IGSA", "MF": "Female\/Male", "ADP_2020": "0", "OU72": "Under 72", "Inspect_Standard": "NDS", "Inspect_Date": "10\/15\/18", "Med_Person": "N\/A", "ICE_Status": "ICE Non-Dedicated Facility", "Latitude": 35.38040527, "Longitude": -80.52791099, "ADP": 0 }, "geometry": { "type": "Point", "coordinates": [ -80.52791, 35.38041 ] } },
{ "type": "Feature", "properties": { "Name": "CACHE COUNTY JAIL", "Address": "50 WEST 200 NORTH", "City": "LOGAN", "State": "UT", "Zip": 84321, "AOR": "SLC", "Type": "USMS IGA", "MF": "Female\/Male", "ADP_2020": "21", "OU72": "Over 72", "Inspect_Standard": "NDS", "Inspect_Date": "11\/8\/18", "Med_Person": "N\/A", "ICE_Status": "ICE Non-Dedicated Facility", "Latitude": 41.80002455, "Longitude": -111.6854587, "ADP": 21 }, "geometry": { "type": "Point", "coordinates": [ -111.68546, 41.80002 ] } },
{ "type": "Feature", "properties": { "Name": "CALDWELL COUNTY DETENTION CENTER", "Address": "280 WEST MAIN STREET", "City": "KINGSTON", "State": "MO", "Zip": 64650, "AOR": "CHI", "Type": "IGSA", "MF": "Female\/Male", "ADP_2020": "14", "OU72": "Over 72", "Inspect_Standard": "NDS", "Inspect_Date": "5\/24\/18", "Med_Person": "N\/A", "ICE_Status": "ICE Non-Dedicated Facility", "Latitude": 39.63486523, "Longitude": -94.05978602, "ADP": 14 }, "geometry": { "type": "Point", "coordinates": [ -94.05979, 39.63487 ] } },
{ "type": "Feature", "properties": { "Name": "CALHOUN COUNTY CORRECTIONAL CENTER", "Address": "185 EAST MICHIGAN AVENUE", "City": "BATTLE CREEK", "State": "MI", "Zip": 49014, "AOR": "DET", "Type": "IGSA", "MF": "Female\/Male", "ADP_2020": "135", "OU72": "Over 72", "Inspect_Standard": "NDS", "Inspect_Date": "3\/7\/19", "Med_Person": "N\/A", "ICE_Status": "ICE Non-Dedicated Facility", "Latitude": 42.31103625, "Longitude": -85.10612029000001, "ADP": 135 }, "geometry": { "type": "Point", "coordinates": [ -85.10612, 42.31104 ] } },
{ "type": "Feature", "properties": { "Name": "CAMBRIA COUNTY JAIL", "Address": "425 MANOR DRIVE", "City": "EBENSBURG", "State": "PA", "Zip": 15931, "AOR": "PHI", "Type": "USMS IGA", "MF": "Male", "ADP_2020": "39", "OU72": "Over 72", "Inspect_Standard": "NDS", "Inspect_Date": "11\/7\/19", "Med_Person": "N\/A", "ICE_Status": "ICE Non-Dedicated Facility", "Latitude": 40.51737435, "Longitude": -78.75826208, "ADP": 39 }, "geometry": { "type": "Point", "coordinates": [ -78.75826, 40.51737 ] } },
{ "type": "Feature", "properties": { "Name": "CARVER COUNTY JAIL", "Address": "600 EAST FOURTH ST.", "City": "CHASKA", "State": "MN", "Zip": 55318, "AOR": "SPM", "Type": "IGSA", "MF": "Female\/Male", "ADP_2020": "15", "OU72": "Over 72", "Inspect_Standard": "NDS", "Inspect_Date": "12\/5\/19", "Med_Person": "N\/A", "ICE_Status": "ICE Non-Dedicated Facility", "Latitude": 44.81113595, "Longitude": -93.63666741, "ADP": 15 }, "geometry": { "type": "Point", "coordinates": [ -93.63667, 44.81114 ] } },
{ "type": "Feature", "properties": { "Name": "CARVER COUNTY JUVENILE DETENTION CENTER", "Address": "600 EAST FOURTH ST.", "City": "CHASKA", "State": "MN", "Zip": 55318, "AOR": "SPM", "Type": "JUVENILE", "MF": "Female\/Male", "ADP_2020": "0", "OU72": "Under 72", "Inspect_Standard": "JFRMU Juvenile", "Inspect_Date": "8\/30\/19", "Med_Person": "N\/A", "ICE_Status": "ICE Non-Dedicated Facility", "Latitude": 44.81113595, "Longitude": -93.63666741, "ADP": 0 }, "geometry": { "type": "Point", "coordinates": [ -93.63667, 44.81114 ] } },
{ "type": "Feature", "properties": { "Name": "CASCADE COUNTY JAIL (MONTANA)", "Address": "3800 ULM NORTH FRONTAGE ROAD", "City": "GREAT FALLS", "State": "MT", "Zip": 59404, "AOR": "SLC", "Type": "USMS IGA", "MF": "Female\/Male", "ADP_2020": "2", "OU72": "Over 72", "Inspect_Standard": "NDS", "Inspect_Date": "9\/17\/18", "Med_Person": "N\/A", "ICE_Status": "ICE Non-Dedicated Facility", "Latitude": 47.63052847, "Longitude": -111.3470878, "ADP": 2 }, "geometry": { "type": "Point", "coordinates": [ -111.34709, 47.63053 ] } },
{ "type": "Feature", "properties": { "Name": "CASS COUNTY JAIL", "Address": "336 MAIN STREET", "City": "PLATTSMOUTH", "State": "NE", "Zip": 68048, "AOR": "SPM", "Type": "USMS IGA", "MF": "Female\/Male", "ADP_2020": "18", "OU72": "Over 72", "Inspect_Standard": "NDS", "Inspect_Date": "9\/19\/19", "Med_Person": "N\/A", "ICE_Status": "ICE Non-Dedicated Facility", "Latitude": 40.9814181, "Longitude": -95.93439183, "ADP": 18 }, "geometry": { "type": "Point", "coordinates": [ -95.93439, 40.98142 ] } },
{ "type": "Feature", "properties": { "Name": "CATAHOULA CORRECTIONAL CENTER", "Address": "499 OLD COLUMBIA ROAD", "City": "HARRISONBURG", "State": "LA", "Zip": 71430, "AOR": "NOL", "Type": "IGSA", "MF": "Male", "ADP_2020": "505", "OU72": "Over 72", "Inspect_Standard": "PBNDS 2011", "Inspect_Date": "8\/22\/19", "Med_Person": "N\/A", "ICE_Status": "ICE Non-Dedicated Facility", "Latitude": 31.04033239, "Longitude": -92.50056824000001, "ADP": 505 }, "geometry": { "type": "Point", "coordinates": [ -92.50057, 31.04033 ] } },
{ "type": "Feature", "properties": { "Name": "CCA, FLORENCE CORRECTIONAL CENTER", "Address": "1100 BOWLING ROAD", "City": "FLORENCE", "State": "AZ", "Zip": 85132, "AOR": "PHO", "Type": "USMS IGA", "MF": "Male", "ADP_2020": "167", "OU72": "Over 72", "Inspect_Standard": "PBNDS 2008", "Inspect_Date": "8\/29\/19", "Med_Person": "N\/A", "ICE_Status": "ICE Non-Dedicated Facility", "Latitude": 32.93337199, "Longitude": -111.204523, "ADP": 167 }, "geometry": { "type": "Point", "coordinates": [ -111.20452, 32.93337 ] } },
{ "type": "Feature", "properties": { "Name": "CENTRAL TEXAS DETENTION FACILITY", "Address": "218 S. LAREDO ST", "City": "SAN ANTONIO", "State": "TX", "Zip": 78207, "AOR": "SNA", "Type": "USMS IGA", "MF": "Female\/Male", "ADP_2020": "1", "OU72": "Under 72", "Inspect_Standard": "NDS", "Inspect_Date": "10\/1\/18", "Med_Person": "N\/A", "ICE_Status": "ICE Non-Dedicated Facility", "Latitude": 29.42218505, "Longitude": -98.52544816, "ADP": 1 }, "geometry": { "type": "Point", "coordinates": [ -98.52545, 29.42219 ] } },
{ "type": "Feature", "properties": { "Name": "CHARLESTON COUNTY DETENTION CENTER", "Address": "3841 LEEDS AVENUE", "City": "NORTH CHARLESTON", "State": "SC", "Zip": 29405, "AOR": "ATL", "Type": "USMS IGA", "MF": "Male", "ADP_2020": "14", "OU72": "Over 72", "Inspect_Standard": "NDS", "Inspect_Date": "12\/19\/19", "Med_Person": "N\/A", "ICE_Status": "ICE Non-Dedicated Facility", "Latitude": 32.85396752, "Longitude": -79.98182696000001, "ADP": 14 }, "geometry": { "type": "Point", "coordinates": [ -79.98183, 32.85397 ] } },
{ "type": "Feature", "properties": { "Name": "CHASE COUNTY DETENTION FACILITY", "Address": "301 SOUTH WALNUT STREET", "City": "COTTONWOOD FALLS", "State": "KS", "Zip": 66845, "AOR": "CHI", "Type": "IGSA", "MF": "Female\/Male", "ADP_2020": "69", "OU72": "Over 72", "Inspect_Standard": "NDS", "Inspect_Date": "7\/11\/19", "Med_Person": "N\/A", "ICE_Status": "ICE Non-Dedicated Facility", "Latitude": 38.29566367, "Longitude": -96.50626903, "ADP": 69 }, "geometry": { "type": "Point", "coordinates": [ -96.50627, 38.29566 ] } },
{ "type": "Feature", "properties": { "Name": "CHAUTAUQUA COUNTY JAIL", "Address": "15 E. CHAUTAUQUA STREET", "City": "MAYVILLE", "State": "NY", "Zip": 14757, "AOR": "BUF", "Type": "IGSA", "MF": "Female\/Male", "ADP_2020": "2", "OU72": "Over 72", "Inspect_Standard": "NDS", "Inspect_Date": "9\/25\/18", "Med_Person": "N\/A", "ICE_Status": "ICE Non-Dedicated Facility", "Latitude": 42.23654163, "Longitude": -79.50390467, "ADP": 2 }, "geometry": { "type": "Point", "coordinates": [ -79.5039, 42.23654 ] } },
{ "type": "Feature", "properties": { "Name": "CHIPPEWA COUNTY SSM", "Address": "325 COURT STREET", "City": "SAULT SAINTE MARIE", "State": "MI", "Zip": 49783, "AOR": "DET", "Type": "IGSA", "MF": "Female\/Male", "ADP_2020": "29", "OU72": "Over 72", "Inspect_Standard": "NDS", "Inspect_Date": "3\/28\/19", "Med_Person": "N\/A", "ICE_Status": "ICE Non-Dedicated Facility", "Latitude": 46.41508896, "Longitude": -84.28542816, "ADP": 29 }, "geometry": { "type": "Point", "coordinates": [ -84.28543, 46.41509 ] } },
{ "type": "Feature", "properties": { "Name": "CHRISTIAN COUNTY JAIL", "Address": "110 WEST ELM", "City": "OZARK", "State": "MO", "Zip": 65721, "AOR": "CHI", "Type": "IGSA", "MF": "Male", "ADP_2020": "13", "OU72": "Over 72", "Inspect_Standard": "NDS", "Inspect_Date": "5\/24\/18", "Med_Person": "N\/A", "ICE_Status": "ICE Non-Dedicated Facility", "Latitude": 36.98012404, "Longitude": -93.21016544, "ADP": 13 }, "geometry": { "type": "Point", "coordinates": [ -93.21017, 36.98012 ] } },
{ "type": "Feature", "properties": { "Name": "CIBOLA COUNTY CORRECTIONAL CENTER", "Address": "2000 CIBOLA LOOP", "City": "MILAN", "State": "NM", "Zip": 87021, "AOR": "ELP", "Type": "IGSA", "MF": "Male", "ADP_2020": "106", "OU72": "Over 72", "Inspect_Standard": "PBNDS 2011", "Inspect_Date": "5\/9\/19", "Med_Person": "N\/A", "ICE_Status": "ICE Non-Dedicated Facility", "Latitude": 35.19128572, "Longitude": -107.8839576, "ADP": 106 }, "geometry": { "type": "Point", "coordinates": [ -107.88396, 35.19129 ] } },
{ "type": "Feature", "properties": { "Name": "CLAY COUNTY JAIL", "Address": "611 EAST JACKSON STREET", "City": "BRAZIL", "State": "IN", "Zip": 47834, "AOR": "CHI", "Type": "USMS IGA", "MF": "Male", "ADP_2020": "52", "OU72": "Over 72", "Inspect_Standard": "PBNDS 2008", "Inspect_Date": "5\/31\/19", "Med_Person": "N\/A", "ICE_Status": "ICE Non-Dedicated Facility", "Latitude": 39.52575097, "Longitude": -87.12135619, "ADP": 52 }, "geometry": { "type": "Point", "coordinates": [ -87.12136, 39.52575 ] } },
{ "type": "Feature", "properties": { "Name": "CLINTON COUNTY CORRECTIONAL FACILITY", "Address": "419 SHOEMAKER ROAD", "City": "LOCK HAVEN", "State": "PA", "Zip": 17745, "AOR": "PHI", "Type": "USMS IGA", "MF": "Male", "ADP_2020": "66", "OU72": "Over 72", "Inspect_Standard": "NDS", "Inspect_Date": "9\/26\/19", "Med_Person": "N\/A", "ICE_Status": "ICE Non-Dedicated Facility", "Latitude": 41.27051282, "Longitude": -77.47607987000001, "ADP": 66 }, "geometry": { "type": "Point", "coordinates": [ -77.47608, 41.27051 ] } },
{ "type": "Feature", "properties": { "Name": "CLINTON COUNTY JAIL", "Address": "25 MCCARTHY DRIVE", "City": "PLATTSBURGH", "State": "NY", "Zip": 12901, "AOR": "BUF", "Type": "USMS IGA", "MF": "Female\/Male", "ADP_2020": "5", "OU72": "Over 72", "Inspect_Standard": "NDS", "Inspect_Date": "10\/25\/18", "Med_Person": "N\/A", "ICE_Status": "ICE Non-Dedicated Facility", "Latitude": 44.70385454, "Longitude": -73.4738639, "ADP": 5 }, "geometry": { "type": "Point", "coordinates": [ -73.47386, 44.70385 ] } },
{ "type": "Feature", "properties": { "Name": "COASTAL BEND DETENTION FACILITY", "Address": "4909 FM (FARM TO MARKET) 2826", "City": "ROBSTOWN", "State": "TX", "Zip": 78380, "AOR": "HOU", "Type": "USMS IGA", "MF": "Male", "ADP_2020": "27", "OU72": "Over 72", "Inspect_Standard": "PBNDS 2008", "Inspect_Date": "1\/9\/20", "Med_Person": "N\/A", "ICE_Status": "ICE Non-Dedicated Facility", "Latitude": 27.79176255, "Longitude": -97.74777879, "ADP": 27 }, "geometry": { "type": "Point", "coordinates": [ -97.74778, 27.79176 ] } },
{ "type": "Feature", "properties": { "Name": "COBB COUNTY JAIL", "Address": "1825 COUNTY SERVICES PARKWAY", "City": "MARIETTA", "State": "GA", "Zip": 30060, "AOR": "ATL", "Type": "IGSA", "MF": "Female\/Male", "ADP_2020": "3", "OU72": "Under 72", "Inspect_Standard": "NDS", "Inspect_Date": "10\/16\/18", "Med_Person": "N\/A", "ICE_Status": "ICE Non-Dedicated Facility", "Latitude": 33.92023331, "Longitude": -84.54209557, "ADP": 3 }, "geometry": { "type": "Point", "coordinates": [ -84.5421, 33.92023 ] } },
{ "type": "Feature", "properties": { "Name": "COLLIER COUNTY NAPLES JAIL CENTER", "Address": "3301 TAMIAMI TRAIL EAST", "City": "NAPLES", "State": "FL", "Zip": 34112, "AOR": "MIA", "Type": "IGSA", "MF": "Female\/Male", "ADP_2020": "8", "OU72": "Over 72", "Inspect_Standard": "NDS", "Inspect_Date": "2\/7\/19", "Med_Person": "N\/A", "ICE_Status": "ICE Non-Dedicated Facility", "Latitude": 26.11800857, "Longitude": -81.74162943, "ADP": 8 }, "geometry": { "type": "Point", "coordinates": [ -81.74163, 26.11801 ] } },
{ "type": "Feature", "properties": { "Name": "COMPASS HOUSE SHELTER", "Address": "370 LINWOOD AVE", "City": "BUFFALO", "State": "NY", "Zip": 14209, "AOR": "BUF", "Type": "JUVENILE", "MF": "Female\/Male", "ADP_2020": "0", "OU72": "Under 72", "Inspect_Standard": "N\/A", "Inspect_Date": "N\/A", "Med_Person": "N\/A", "ICE_Status": "ICE Non-Dedicated Facility", "Latitude": 42.91394411, "Longitude": -78.86602037, "ADP": 0 }, "geometry": { "type": "Point", "coordinates": [ -78.86602, 42.91394 ] } },
{ "type": "Feature", "properties": { "Name": "COWLITZ COUNTY JUVENILE", "Address": "1725 1ST AVE.", "City": "LONGVIEW", "State": "WA", "Zip": 98632, "AOR": "SEA", "Type": "JUVENILE", "MF": "Female\/Male", "ADP_2020": "3", "OU72": "Over 72", "Inspect_Standard": "JFRMU Juvenile", "Inspect_Date": "8\/1\/19", "Med_Person": "N\/A", "ICE_Status": "ICE Non-Dedicated Facility", "Latitude": 46.21674958, "Longitude": -123.0684057, "ADP": 3 }, "geometry": { "type": "Point", "coordinates": [ -123.06841, 46.21675 ] } },
{ "type": "Feature", "properties": { "Name": "CUMBERLAND COUNTY JAIL", "Address": "50 COUNTY WAY", "City": "PORTLAND", "State": "ME", "Zip": 4102, "AOR": "BOS", "Type": "USMS IGA", "MF": "Female\/Male", "ADP_2020": "1", "OU72": "Over 72", "Inspect_Standard": "NDS", "Inspect_Date": "9\/5\/18", "Med_Person": "N\/A", "ICE_Status": "ICE Non-Dedicated Facility", "Latitude": 43.65878995, "Longitude": -70.30617139, "ADP": 1 }, "geometry": { "type": "Point", "coordinates": [ -70.30617, 43.65879 ] } },
{ "type": "Feature", "properties": { "Name": "DAKOTA COUNTY JAIL", "Address": "1601 BROADWAY", "City": "DAKOTA CITY", "State": "NE", "Zip": 68731, "AOR": "SPM", "Type": "USMS IGA", "MF": "Female\/Male", "ADP_2020": "2", "OU72": "Under 72", "Inspect_Standard": "NDS", "Inspect_Date": "9\/24\/18", "Med_Person": "N\/A", "ICE_Status": "ICE Non-Dedicated Facility", "Latitude": 42.40977571, "Longitude": -96.48112345, "ADP": 2 }, "geometry": { "type": "Point", "coordinates": [ -96.48112, 42.40978 ] } },
{ "type": "Feature", "properties": { "Name": "DALE G. HAILE DETENTION CENTER", "Address": "1115 ALBANY", "City": "CALDWELL", "State": "ID", "Zip": 83605, "AOR": "SLC", "Type": "IGSA", "MF": "Female\/Male", "ADP_2020": "1", "OU72": "Over 72", "Inspect_Standard": "NDS", "Inspect_Date": "9\/5\/17", "Med_Person": "N\/A", "ICE_Status": "ICE Non-Dedicated Facility", "Latitude": 43.66240866, "Longitude": -116.6564643, "ADP": 1 }, "geometry": { "type": "Point", "coordinates": [ -116.65646, 43.66241 ] } },
{ "type": "Feature", "properties": { "Name": "DALLAS COUNTY JAIL - LEW STERRETT JUSTICE CENTER", "Address": "111 WEST COMMERCE STREET", "City": "DALLAS", "State": "TX", "Zip": 75202, "AOR": "DAL", "Type": "USMS IGA", "MF": "Female\/Male", "ADP_2020": "7", "OU72": "Under 72", "Inspect_Standard": "NDS", "Inspect_Date": "10\/20\/17", "Med_Person": "N\/A", "ICE_Status": "ICE Non-Dedicated Facility", "Latitude": 32.77929001, "Longitude": -96.80476588000001, "ADP": 7 }, "geometry": { "type": "Point", "coordinates": [ -96.80477, 32.77929 ] } },
{ "type": "Feature", "properties": { "Name": "DAVIDSON COUNTY SHERIFF", "Address": "448 2ND AVENUE NORTH", "City": "NASHVILLE", "State": "TN", "Zip": 37210, "AOR": "NOL", "Type": "IGSA", "MF": "Female\/Male", "ADP_2020": "0", "OU72": "Over 72", "Inspect_Standard": "NDS", "Inspect_Date": "9\/24\/18", "Med_Person": "N\/A", "ICE_Status": "ICE Non-Dedicated Facility", "Latitude": 36.14433589, "Longitude": -86.73362876, "ADP": 0 }, "geometry": { "type": "Point", "coordinates": [ -86.73363, 36.14434 ] } },
{ "type": "Feature", "properties": { "Name": "DEARBORN POLICE DEPARTMENT", "Address": "16099 MICHIGAN AVE", "City": "DEARBORN", "State": "MI", "Zip": 48126, "AOR": "DET", "Type": "IGSA", "MF": "Female\/Male", "ADP_2020": "0", "OU72": "Under 72", "Inspect_Standard": "NDS", "Inspect_Date": "8\/17\/18", "Med_Person": "N\/A", "ICE_Status": "ICE Non-Dedicated Facility", "Latitude": 42.32553255, "Longitude": -83.18343456, "ADP": 0 }, "geometry": { "type": "Point", "coordinates": [ -83.18343, 42.32553 ] } },
{ "type": "Feature", "properties": { "Name": "DEKALB COUNTY DETENTION CENTER", "Address": "2801 JORDAN ROAD", "City": "FORT PAYNE", "State": "AL", "Zip": 35968, "AOR": "NOL", "Type": "USMS IGA", "MF": "Female\/Male", "ADP_2020": "11", "OU72": "Over 72", "Inspect_Standard": "NDS", "Inspect_Date": "1\/30\/20", "Med_Person": "N\/A", "ICE_Status": "ICE Non-Dedicated Facility", "Latitude": 34.48976137, "Longitude": -85.76571671000001, "ADP": 11 }, "geometry": { "type": "Point", "coordinates": [ -85.76572, 34.48976 ] } },
{ "type": "Feature", "properties": { "Name": "DELAWARE CO JAIL (GEORGE W. HILL)", "Address": "500 CHAYNEY ROAD", "City": "THORNTON", "State": "PA", "Zip": 19373, "AOR": "PHI", "Type": "USMS IGA", "MF": "Female\/Male", "ADP_2020": "3", "OU72": "Under 72", "Inspect_Standard": "NDS", "Inspect_Date": "8\/10\/18", "Med_Person": "N\/A", "ICE_Status": "ICE Non-Dedicated Facility", "Latitude": 39.90247691, "Longitude": -75.53390434000001, "ADP": 3 }, "geometry": { "type": "Point", "coordinates": [ -75.5339, 39.90248 ] } },
{ "type": "Feature", "properties": { "Name": "DODGE COUNTY JAIL", "Address": "215 WEST CENTRAL STREET", "City": "JUNEAU", "State": "WI", "Zip": 53039, "AOR": "CHI", "Type": "USMS IGA", "MF": "Female\/Male", "ADP_2020": "113", "OU72": "Over 72", "Inspect_Standard": "NDS", "Inspect_Date": "4\/18\/19", "Med_Person": "N\/A", "ICE_Status": "ICE Non-Dedicated Facility", "Latitude": 43.36999429, "Longitude": -88.71292226, "ADP": 113 }, "geometry": { "type": "Point", "coordinates": [ -88.71292, 43.36999 ] } },
{ "type": "Feature", "properties": { "Name": "DOUGLAS COUNTY DEPARTMENT OF CORRECTIONS", "Address": "710 SOUTH 17TH ST", "City": "OMAHA", "State": "NE", "Zip": 68102, "AOR": "SPM", "Type": "IGSA", "MF": "Female\/Male", "ADP_2020": "12", "OU72": "Over 72", "Inspect_Standard": "PBNDS 2008", "Inspect_Date": "10\/24\/19", "Med_Person": "N\/A", "ICE_Status": "ICE Non-Dedicated Facility", "Latitude": 41.26199946, "Longitude": -95.93337722, "ADP": 12 }, "geometry": { "type": "Point", "coordinates": [ -95.93338, 41.262 ] } },
{ "type": "Feature", "properties": { "Name": "EAST HIDALGO DETENTION CENTER", "Address": "1330 HIGHWAY 107", "City": "LA VILLA", "State": "TX", "Zip": 78562, "AOR": "SNA", "Type": "USMS IGA", "MF": "Female\/Male", "ADP_2020": "2", "OU72": "Over 72", "Inspect_Standard": "NDS", "Inspect_Date": "9\/6\/19", "Med_Person": "N\/A", "ICE_Status": "ICE Non-Dedicated Facility", "Latitude": 26.29354248, "Longitude": -97.89878242, "ADP": 2 }, "geometry": { "type": "Point", "coordinates": [ -97.89878, 26.29354 ] } },
{ "type": "Feature", "properties": { "Name": "EDEN DETENTION CENTER", "Address": "702 E BROADWAY ST", "City": "EDEN", "State": "TX", "Zip": 76837, "AOR": "DAL", "Type": "USMS IGA", "MF": "Male", "ADP_2020": "395", "OU72": null, "Inspect_Standard": "NDS", "Inspect_Date": "12\/19\/19", "Med_Person": "N\/A", "ICE_Status": "ICE Non-Dedicated Facility", "Latitude": 31.22070502, "Longitude": -99.89592779, "ADP": 395 }, "geometry": { "type": "Point", "coordinates": [ -99.89593, 31.22071 ] } },
{ "type": "Feature", "properties": { "Name": "EL VALLE DETENTION FACILITY", "Address": "1800 INDUSTRIAL DRIVE", "City": "RAYMONDVILLE", "State": "TX", "Zip": 78580, "AOR": "SNA", "Type": "IGSA", "MF": "Female\/Male", "ADP_2020": "789", "OU72": "Over 72", "Inspect_Standard": "PBNDS 2011", "Inspect_Date": "10\/24\/19", "Med_Person": "N\/A", "ICE_Status": "ICE Non-Dedicated Facility", "Latitude": 26.48680454, "Longitude": -97.73827443, "ADP": 789 }, "geometry": { "type": "Point", "coordinates": [ -97.73827, 26.4868 ] } },
{ "type": "Feature", "properties": { "Name": "ELMORE COUNTY JAIL", "Address": "2255 E. 8TH NORTH", "City": "MOUNTAIN HOME", "State": "ID", "Zip": 83647, "AOR": "SLC", "Type": "USMS IGA", "MF": "Female\/Male", "ADP_2020": "3", "OU72": "Over 72", "Inspect_Standard": "NDS", "Inspect_Date": "9\/17\/18", "Med_Person": "N\/A", "ICE_Status": "ICE Non-Dedicated Facility", "Latitude": 43.43420961, "Longitude": -115.5026147, "ADP": 3 }, "geometry": { "type": "Point", "coordinates": [ -115.50261, 43.43421 ] } },
{ "type": "Feature", "properties": { "Name": "ERIE COUNTY JAIL", "Address": "1618 ASH STREET", "City": "ERIE", "State": "PA", "Zip": 16503, "AOR": "PHI", "Type": "USMS IGA", "MF": "Female\/Male", "ADP_2020": "0", "OU72": "Over 72", "Inspect_Standard": "NDS", "Inspect_Date": "9\/20\/18", "Med_Person": "N\/A", "ICE_Status": "ICE Non-Dedicated Facility", "Latitude": 42.12703593, "Longitude": -80.0610644, "ADP": 0 }, "geometry": { "type": "Point", "coordinates": [ -80.06106, 42.12704 ] } },
{ "type": "Feature", "properties": { "Name": "ESSEX COUNTY CORRECTIONAL FACILITY", "Address": "354 DOREMUS AVENUE", "City": "NEWARK", "State": "NJ", "Zip": 7105, "AOR": "NEW", "Type": "IGSA", "MF": "Male", "ADP_2020": "616", "OU72": "Over 72", "Inspect_Standard": "PBNDS 2011", "Inspect_Date": "9\/26\/19", "Med_Person": "N\/A", "ICE_Status": "ICE Non-Dedicated Facility", "Latitude": 40.72291814, "Longitude": -74.13883899, "ADP": 616 }, "geometry": { "type": "Point", "coordinates": [ -74.13884, 40.72292 ] } },
{ "type": "Feature", "properties": { "Name": "ETOWAH COUNTY JAIL (ALABAMA)", "Address": "827 FORREST AVENUE", "City": "GADSDEN", "State": "AL", "Zip": 35901, "AOR": "NOL", "Type": "USMS IGA", "MF": "Male", "ADP_2020": "234", "OU72": "Over 72", "Inspect_Standard": "NDS", "Inspect_Date": "7\/18\/19", "Med_Person": "N\/A", "ICE_Status": "ICE Non-Dedicated Facility", "Latitude": 34.04795327, "Longitude": -85.92462431, "ADP": 234 }, "geometry": { "type": "Point", "coordinates": [ -85.92462, 34.04795 ] } },
{ "type": "Feature", "properties": { "Name": "EULESS CITY JAIL", "Address": "1102 W. EULESS BLVD.", "City": "EULESS", "State": "TX", "Zip": 76040, "AOR": "DAL", "Type": "IGSA", "MF": "Female\/Male", "ADP_2020": "7", "OU72": "Under 72", "Inspect_Standard": "NDS", "Inspect_Date": "10\/11\/17", "Med_Person": "N\/A", "ICE_Status": "ICE Non-Dedicated Facility", "Latitude": 32.81468102, "Longitude": -97.09674719, "ADP": 7 }, "geometry": { "type": "Point", "coordinates": [ -97.09675, 32.81468 ] } },
{ "type": "Feature", "properties": { "Name": "FAYETTE COUNTY DETENTION CENTER", "Address": "600 OLD FRANKFORD CR", "City": "LEXINGTON", "State": "KY", "Zip": 40510, "AOR": "CHI", "Type": "USMS IGA", "MF": "Female\/Male", "ADP_2020": "2", "OU72": "Under 72", "Inspect_Standard": "NDS", "Inspect_Date": "8\/14\/18", "Med_Person": "N\/A", "ICE_Status": "ICE Non-Dedicated Facility", "Latitude": 38.06895763, "Longitude": -84.6014669, "ADP": 2 }, "geometry": { "type": "Point", "coordinates": [ -84.60147, 38.06896 ] } },
{ "type": "Feature", "properties": { "Name": "FORSYTH COUNTY JAIL", "Address": "201 NORTH CHURCH STREET", "City": "WINSTON-SALEM", "State": "NC", "Zip": 27101, "AOR": "ATL", "Type": "USMS IGA", "MF": "Female\/Male", "ADP_2020": "0", "OU72": "Under 72", "Inspect_Standard": "NDS", "Inspect_Date": "9\/15\/17", "Med_Person": "N\/A", "ICE_Status": "ICE Non-Dedicated Facility", "Latitude": 36.111728, "Longitude": -80.19861425000001, "ADP": 0 }, "geometry": { "type": "Point", "coordinates": [ -80.19861, 36.11173 ] } },
{ "type": "Feature", "properties": { "Name": "FRANKLIN COUNTY HOUSE OF CORRECTION", "Address": "160 ELM STREET", "City": "GREENFIELD", "State": "MA", "Zip": 1301, "AOR": "BOS", "Type": "USMS IGA", "MF": "Male", "ADP_2020": "22", "OU72": "Over 72", "Inspect_Standard": "NDS", "Inspect_Date": "5\/2\/19", "Med_Person": "N\/A", "ICE_Status": "ICE Non-Dedicated Facility", "Latitude": 42.62413299, "Longitude": -72.60390529, "ADP": 22 }, "geometry": { "type": "Point", "coordinates": [ -72.60391, 42.62413 ] } },
{ "type": "Feature", "properties": { "Name": "FREDERICK COUNTY DETENTION CENTER", "Address": "7300 MARCIE'S CHOICE LANE", "City": "FREDERICK", "State": "MD", "Zip": 21704, "AOR": "BAL", "Type": "IGSA", "MF": "Male", "ADP_2020": "21", "OU72": "Over 72", "Inspect_Standard": "NDS", "Inspect_Date": "7\/11\/19", "Med_Person": "N\/A", "ICE_Status": "ICE Non-Dedicated Facility", "Latitude": 39.35410288, "Longitude": -77.3750002, "ADP": 21 }, "geometry": { "type": "Point", "coordinates": [ -77.375, 39.3541 ] } },
{ "type": "Feature", "properties": { "Name": "FREEBORN COUNTY ADULT DETENTION CENTER", "Address": "411 SOUTH BROADWAY AVENUE", "City": "ALBERT LEA", "State": "MN", "Zip": 56007, "AOR": "SPM", "Type": "IGSA", "MF": "Male", "ADP_2020": "50", "OU72": "Over 72", "Inspect_Standard": "NDS", "Inspect_Date": "4\/18\/19", "Med_Person": "N\/A", "ICE_Status": "ICE Non-Dedicated Facility", "Latitude": 43.66037318, "Longitude": -93.3252699, "ADP": 50 }, "geometry": { "type": "Point", "coordinates": [ -93.32527, 43.66037 ] } },
{ "type": "Feature", "properties": { "Name": "GARVIN COUNTY DETENTION CENTER", "Address": "201 WEST GRANT AVENUE", "City": "PAULS VALLEY", "State": "OK", "Zip": 73075, "AOR": "DAL", "Type": "IGSA", "MF": "Female\/Male", "ADP_2020": "1", "OU72": "Under 72", "Inspect_Standard": "NDS", "Inspect_Date": "10\/11\/17", "Med_Person": "N\/A", "ICE_Status": "ICE Non-Dedicated Facility", "Latitude": 34.75158689, "Longitude": -97.23350556, "ADP": 1 }, "geometry": { "type": "Point", "coordinates": [ -97.23351, 34.75159 ] } },
{ "type": "Feature", "properties": { "Name": "GASTON COUNTY JAIL", "Address": "425 NORTH MARIETTA STREET", "City": "GASTONIA", "State": "NC", "Zip": 28052, "AOR": "ATL", "Type": "IGSA", "MF": "Female\/Male", "ADP_2020": "0", "OU72": "Under 72", "Inspect_Standard": "NDS", "Inspect_Date": "10\/15\/18", "Med_Person": "N\/A", "ICE_Status": "ICE Non-Dedicated Facility", "Latitude": 35.22376799, "Longitude": -81.23374129, "ADP": 0 }, "geometry": { "type": "Point", "coordinates": [ -81.23374, 35.22377 ] } },
{ "type": "Feature", "properties": { "Name": "GEAUGA COUNTY JAIL", "Address": "12450 MERRITT DR", "City": "CHARDON", "State": "OH", "Zip": 44024, "AOR": "DET", "Type": "USMS IGA", "MF": "Female\/Male", "ADP_2020": "48", "OU72": "Over 72", "Inspect_Standard": "NDS", "Inspect_Date": "10\/10\/19", "Med_Person": "N\/A", "ICE_Status": "ICE Non-Dedicated Facility", "Latitude": 41.57664437, "Longitude": -81.1926072, "ADP": 48 }, "geometry": { "type": "Point", "coordinates": [ -81.19261, 41.57664 ] } },
{ "type": "Feature", "properties": { "Name": "GLADES COUNTY DETENTION CENTER", "Address": "1297 EAST SR 78", "City": "MOORE HAVEN", "State": "FL", "Zip": 33471, "AOR": "MIA", "Type": "IGSA", "MF": "Female\/Male", "ADP_2020": "426", "OU72": "Over 72", "Inspect_Standard": "NDS", "Inspect_Date": "3\/14\/19", "Med_Person": "N\/A", "ICE_Status": "ICE Non-Dedicated Facility", "Latitude": 26.88401033, "Longitude": -81.19266632, "ADP": 426 }, "geometry": { "type": "Point", "coordinates": [ -81.19267, 26.88401 ] } },
{ "type": "Feature", "properties": { "Name": "GLENDALE POLICE DEPARTMENT", "Address": "131 NORTH ISABEL STREET", "City": "GLENDALE", "State": "CA", "Zip": 91206, "AOR": "LOS", "Type": "IGSA", "MF": "Female\/Male", "ADP_2020": "0", "OU72": "Under 72", "Inspect_Standard": "NDS", "Inspect_Date": "9\/20\/18", "Med_Person": "N\/A", "ICE_Status": "ICE Non-Dedicated Facility", "Latitude": 34.16068057, "Longitude": -118.2134391, "ADP": 0 }, "geometry": { "type": "Point", "coordinates": [ -118.21344, 34.16068 ] } },
{ "type": "Feature", "properties": { "Name": "GRAND FORKS COUNTY", "Address": "P.O. BOX 726", "City": "GRAND FORKS", "State": "ND", "Zip": 58206, "AOR": "SPM", "Type": "JUVENILE", "MF": "Female\/Male", "ADP_2020": "0", "OU72": "Under 72", "Inspect_Standard": "JFRMU Juvenile", "Inspect_Date": "10\/31\/19", "Med_Person": "N\/A", "ICE_Status": "ICE Non-Dedicated Facility", "Latitude": 47.899294, "Longitude": -97.067616, "ADP": 0 }, "geometry": { "type": "Point", "coordinates": [ -97.06762, 47.89929 ] } },
{ "type": "Feature", "properties": { "Name": "GRAND FORKS COUNTY CORRECTIONAL FACILITY", "Address": "1701 NORTH WASHINGTON ST", "City": "GRAND FORKS", "State": "ND", "Zip": 58206, "AOR": "SPM", "Type": "IGSA", "MF": "Female\/Male", "ADP_2020": "6", "OU72": "Over 72", "Inspect_Standard": "NDS", "Inspect_Date": "5\/17\/18", "Med_Person": "N\/A", "ICE_Status": "ICE Non-Dedicated Facility", "Latitude": 47.899294, "Longitude": -97.067616, "ADP": 6 }, "geometry": { "type": "Point", "coordinates": [ -97.06762, 47.89929 ] } },
{ "type": "Feature", "properties": { "Name": "GRAYSON COUNTY JAIL", "Address": "320 SHAW STATION ROAD", "City": "LEITCHFIELD", "State": "KY", "Zip": 42754, "AOR": "CHI", "Type": "USMS IGA", "MF": "Female\/Male", "ADP_2020": "1", "OU72": "Under 72", "Inspect_Standard": "NDS", "Inspect_Date": "8\/14\/18", "Med_Person": "N\/A", "ICE_Status": "ICE Non-Dedicated Facility", "Latitude": 37.47600057, "Longitude": -86.31462086000001, "ADP": 1 }, "geometry": { "type": "Point", "coordinates": [ -86.31462, 37.476 ] } },
{ "type": "Feature", "properties": { "Name": "HALL COUNTY DEPARTMENT OF CORRECTIONS", "Address": "110 PUBLIC SAFETY DRIVE", "City": "GRAND ISLAND", "State": "NE", "Zip": 68801, "AOR": "SPM", "Type": "IGSA", "MF": "Female\/Male", "ADP_2020": "75", "OU72": "Over 72", "Inspect_Standard": "NDS", "Inspect_Date": "7\/11\/19", "Med_Person": "N\/A", "ICE_Status": "ICE Non-Dedicated Facility", "Latitude": 40.94789122, "Longitude": -98.29167218000001, "ADP": 75 }, "geometry": { "type": "Point", "coordinates": [ -98.29167, 40.94789 ] } },
{ "type": "Feature", "properties": { "Name": "HALL COUNTY JAIL", "Address": "1700 BARBER ROAD", "City": "GAINESVILLE", "State": "GA", "Zip": 30507, "AOR": "ATL", "Type": "USMS IGA", "MF": "Female\/Male", "ADP_2020": "0", "OU72": "Under 72", "Inspect_Standard": "NDS", "Inspect_Date": "9\/15\/17", "Med_Person": "N\/A", "ICE_Status": "ICE Non-Dedicated Facility", "Latitude": 34.260526, "Longitude": -83.76694841, "ADP": 0 }, "geometry": { "type": "Point", "coordinates": [ -83.76695, 34.26053 ] } },
{ "type": "Feature", "properties": { "Name": "HARDIN COUNTY JAIL", "Address": "1116 14TH AVENUE", "City": "ELDORA", "State": "IA", "Zip": 50627, "AOR": "SPM", "Type": "IGSA", "MF": "Female\/Male", "ADP_2020": "59", "OU72": "Over 72", "Inspect_Standard": "NDS", "Inspect_Date": "9\/12\/19", "Med_Person": "N\/A", "ICE_Status": "ICE Non-Dedicated Facility", "Latitude": 42.3505659, "Longitude": -93.09574816, "ADP": 59 }, "geometry": { "type": "Point", "coordinates": [ -93.09575, 42.35057 ] } },
{ "type": "Feature", "properties": { "Name": "HENDERSON DETENTION CENTER", "Address": "18 E BASIC ROAD", "City": "HENDERSON", "State": "NV", "Zip": 89015, "AOR": "SLC", "Type": "USMS IGA", "MF": "Female\/Male", "ADP_2020": "193", "OU72": "Over 72", "Inspect_Standard": "NDS", "Inspect_Date": "7\/18\/19", "Med_Person": "N\/A", "ICE_Status": "ICE Non-Dedicated Facility", "Latitude": 36.03930082, "Longitude": -114.9280186, "ADP": 193 }, "geometry": { "type": "Point", "coordinates": [ -114.92802, 36.0393 ] } },
{ "type": "Feature", "properties": { "Name": "HOWARD COUNTY DETENTION CENTER", "Address": "7301 WATERLOO ROAD", "City": "JESSUP", "State": "MD", "Zip": 20794, "AOR": "BAL", "Type": "IGSA", "MF": "Male", "ADP_2020": "60", "OU72": "Over 72", "Inspect_Standard": "PBNDS 2011", "Inspect_Date": "8\/29\/19", "Med_Person": "N\/A", "ICE_Status": "ICE Non-Dedicated Facility", "Latitude": 39.15014458, "Longitude": -76.78901652, "ADP": 60 }, "geometry": { "type": "Point", "coordinates": [ -76.78902, 39.15014 ] } },
{ "type": "Feature", "properties": { "Name": "HUDSON COUNTY CORRECTIONAL CENTER", "Address": "30-35 HACKENSACK AVE.", "City": "KEARNY", "State": "NJ", "Zip": 7032, "AOR": "NYC", "Type": "IGSA", "MF": "Female\/Male", "ADP_2020": "290", "OU72": "Over 72", "Inspect_Standard": "PBNDS 2008", "Inspect_Date": "5\/9\/19", "Med_Person": "N\/A", "ICE_Status": "ICE Non-Dedicated Facility", "Latitude": 40.75357309, "Longitude": -74.12036145, "ADP": 290 }, "geometry": { "type": "Point", "coordinates": [ -74.12036, 40.75357 ] } },
{ "type": "Feature", "properties": { "Name": "IAH SECURE ADULT DETENTION FACILITY (POLK)", "Address": "3400 FM 350 SOUTH", "City": "LIVINGSTON", "State": "TX", "Zip": 77351, "AOR": "HOU", "Type": "IGSA", "MF": "Male", "ADP_2020": "400", "OU72": "Over 72", "Inspect_Standard": "NDS", "Inspect_Date": "1\/9\/20", "Med_Person": "N\/A", "ICE_Status": "ICE Non-Dedicated Facility", "Latitude": 30.71305765, "Longitude": -94.82199164, "ADP": 400 }, "geometry": { "type": "Point", "coordinates": [ -94.82199, 30.71306 ] } },
{ "type": "Feature", "properties": { "Name": "IRWIN COUNTY DETENTION CENTER", "Address": "132 COTTON DRIVE", "City": "OCILLA", "State": "GA", "Zip": 31772, "AOR": "ATL", "Type": "USMS IGA", "MF": "Female\/Male", "ADP_2020": "784", "OU72": "Over 72", "Inspect_Standard": "PBNDS 2008", "Inspect_Date": "6\/13\/19", "Med_Person": "N\/A", "ICE_Status": "ICE Non-Dedicated Facility", "Latitude": 31.72506577, "Longitude": -83.95683069, "ADP": 784 }, "geometry": { "type": "Point", "coordinates": [ -83.95683, 31.72507 ] } },
{ "type": "Feature", "properties": { "Name": "JACK HARWELL DETENTION CENTER", "Address": "3101 MARLIN HWY", "City": "WACO", "State": "TX", "Zip": 76705, "AOR": "SNA", "Type": "USMS IGA", "MF": "Female\/Male", "ADP_2020": "0", "OU72": "Over 72", "Inspect_Standard": "NDS", "Inspect_Date": "10\/1\/18", "Med_Person": "N\/A", "ICE_Status": "ICE Non-Dedicated Facility", "Latitude": 31.62654889, "Longitude": -97.09606344, "ADP": 0 }, "geometry": { "type": "Point", "coordinates": [ -97.09606, 31.62655 ] } },
{ "type": "Feature", "properties": { "Name": "JACKSON PARISH CORRECTIONAL CENTER", "Address": "327 INDUSTRIAL DRIVE", "City": "JONESBORO", "State": "LA", "Zip": 71251, "AOR": "NOL", "Type": "IGSA", "MF": "Female\/Male", "ADP_2020": "780", "OU72": "Over 72", "Inspect_Standard": "PBNDS 2011", "Inspect_Date": "11\/7\/19", "Med_Person": "N\/A", "ICE_Status": "ICE Non-Dedicated Facility", "Latitude": 32.21621854, "Longitude": -92.67173564, "ADP": 780 }, "geometry": { "type": "Point", "coordinates": [ -92.67174, 32.21622 ] } },
{ "type": "Feature", "properties": { "Name": "JEFFERSON COUNTY JAIL", "Address": "200 COURTHOUSE WAY", "City": "RIGBY", "State": "ID", "Zip": 83442, "AOR": "SLC", "Type": "IGSA", "MF": "Female\/Male", "ADP_2020": "4", "OU72": "Over 72", "Inspect_Standard": "NDS", "Inspect_Date": "9\/17\/18", "Med_Person": "N\/A", "ICE_Status": "ICE Non-Dedicated Facility", "Latitude": 43.6719948, "Longitude": -111.8929381, "ADP": 4 }, "geometry": { "type": "Point", "coordinates": [ -111.89294, 43.67199 ] } },
{ "type": "Feature", "properties": { "Name": "JOE CORLEY ICE PROCESSING CENTER", "Address": "500 HILBIG RD.", "City": "CONROE", "State": "TX", "Zip": 77301, "AOR": "HOU", "Type": "IGSA", "MF": "Female\/Male", "ADP_2020": "451", "OU72": "Over 72", "Inspect_Standard": "PBNDS 2011", "Inspect_Date": "11\/15\/19", "Med_Person": "N\/A", "ICE_Status": "ICE Non-Dedicated Facility", "Latitude": 30.30796398, "Longitude": -95.4342992, "ADP": 451 }, "geometry": { "type": "Point", "coordinates": [ -95.4343, 30.30796 ] } },
{ "type": "Feature", "properties": { "Name": "JOHNSON COUNTY CORRECTIONS CENTER", "Address": "1800 RIDGEMAR DRIVE", "City": "CLEBURNE", "State": "TX", "Zip": 76031, "AOR": "DAL", "Type": "IGSA", "MF": "Male", "ADP_2020": "173", "OU72": "Over 72", "Inspect_Standard": "PBNDS 2011", "Inspect_Date": "8\/22\/19", "Med_Person": "N\/A", "ICE_Status": "ICE Non-Dedicated Facility", "Latitude": 32.34849025, "Longitude": -97.33111799, "ADP": 173 }, "geometry": { "type": "Point", "coordinates": [ -97.33112, 32.34849 ] } },
{ "type": "Feature", "properties": { "Name": "KANDIYOHI COUNTY JAIL", "Address": "2201 23RD ST NE", "City": "WILLMAR", "State": "MN", "Zip": 56201, "AOR": "SPM", "Type": "IGSA", "MF": "Female\/Male", "ADP_2020": "52", "OU72": "Over 72", "Inspect_Standard": "NDS", "Inspect_Date": "7\/11\/19", "Med_Person": "N\/A", "ICE_Status": "ICE Non-Dedicated Facility", "Latitude": 45.1015637, "Longitude": -95.04192763, "ADP": 52 }, "geometry": { "type": "Point", "coordinates": [ -95.04193, 45.10156 ] } },
{ "type": "Feature", "properties": { "Name": "KANKAKEE COUNTY JAIL (JEROME COMBS DET CTR)", "Address": "3050 JUSTICE WAY", "City": "KANKAKEE", "State": "IL", "Zip": 60901, "AOR": "CHI", "Type": "USMS IGA", "MF": "Male", "ADP_2020": "128", "OU72": "Over 72", "Inspect_Standard": "NDS", "Inspect_Date": "4\/11\/19", "Med_Person": "N\/A", "ICE_Status": "ICE Non-Dedicated Facility", "Latitude": 41.11083697, "Longitude": -87.89809292, "ADP": 128 }, "geometry": { "type": "Point", "coordinates": [ -87.89809, 41.11084 ] } },
{ "type": "Feature", "properties": { "Name": "KARNES COUNTY CORRECTIONAL CENTER", "Address": "810 COMMERCE STREET", "City": "KARNES CITY", "State": "TX", "Zip": 78118, "AOR": "SNA", "Type": "USMS IGA", "MF": "Female\/Male", "ADP_2020": "0", "OU72": "Over 72", "Inspect_Standard": "NDS", "Inspect_Date": "3\/16\/17", "Med_Person": "N\/A", "ICE_Status": "ICE Non-Dedicated Facility", "Latitude": 28.88643915, "Longitude": -97.95035581, "ADP": 0 }, "geometry": { "type": "Point", "coordinates": [ -97.95036, 28.88644 ] } },
{ "type": "Feature", "properties": { "Name": "KAY COUNTY JUSTICE FACILITY", "Address": "1101 WEST DRY ROAD", "City": "NEWKIRK", "State": "OK", "Zip": 74647, "AOR": "DAL", "Type": "IGSA", "MF": "Female", "ADP_2020": "92", "OU72": "Over 72", "Inspect_Standard": "PBNDS 2011", "Inspect_Date": "10\/24\/19", "Med_Person": "N\/A", "ICE_Status": "ICE Non-Dedicated Facility", "Latitude": 36.91233392, "Longitude": -96.98529556, "ADP": 92 }, "geometry": { "type": "Point", "coordinates": [ -96.9853, 36.91233 ] } },
{ "type": "Feature", "properties": { "Name": "KENOSHA COUNTY DETENTION CENTER", "Address": "4777 88TH AVENUE", "City": "KENOSHA", "State": "WI", "Zip": 53144, "AOR": "CHI", "Type": "USMS IGA", "MF": "Female\/Male", "ADP_2020": "149", "OU72": "Over 72", "Inspect_Standard": "NDS", "Inspect_Date": "6\/6\/19", "Med_Person": "N\/A", "ICE_Status": "ICE Non-Dedicated Facility", "Latitude": 42.61948233, "Longitude": -87.9231629, "ADP": 149 }, "geometry": { "type": "Point", "coordinates": [ -87.92316, 42.61948 ] } },
{ "type": "Feature", "properties": { "Name": "KENT COUNTY JAIL", "Address": "701 BALL AVENUE NORTHEAST", "City": "GRAND RAPIDS", "State": "MI", "Zip": 49503, "AOR": "DET", "Type": "IGSA", "MF": "Female\/Male", "ADP_2020": "0", "OU72": "Under 72", "Inspect_Standard": "NDS", "Inspect_Date": "8\/16\/18", "Med_Person": "N\/A", "ICE_Status": "ICE Non-Dedicated Facility", "Latitude": 42.96256353, "Longitude": -85.65925241, "ADP": 0 }, "geometry": { "type": "Point", "coordinates": [ -85.65925, 42.96256 ] } },
{ "type": "Feature", "properties": { "Name": "LA PALMA CORRECTION CENTER - APSO", "Address": "5501 NORTH LA PALMA ROAD", "City": "ELOY", "State": "AZ", "Zip": 85131, "AOR": "PHO", "Type": "IGSA", "MF": "Male", "ADP_2020": "493", "OU72": "Over 72", "Inspect_Standard": "N\/A", "Inspect_Date": "New Facility", "Med_Person": "N\/A", "ICE_Status": "ICE Non-Dedicated Facility", "Latitude": 32.6739149, "Longitude": -111.5501339, "ADP": 493 }, "geometry": { "type": "Point", "coordinates": [ -111.55013, 32.67391 ] } },
{ "type": "Feature", "properties": { "Name": "LA PALMA CORRECTIONAL CENTER", "Address": "5501 NORTH LA PALMA ROAD", "City": "ELOY", "State": "AZ", "Zip": 85131, "AOR": "PHO", "Type": "IGSA", "MF": "Male", "ADP_2020": "1,268", "OU72": "Over 72", "Inspect_Standard": "PBNDS 2011", "Inspect_Date": "6\/27\/19", "Med_Person": "N\/A", "ICE_Status": "ICE Non-Dedicated Facility", "Latitude": 32.6739149, "Longitude": -111.5501339, "ADP": 1268 }, "geometry": { "type": "Point", "coordinates": [ -111.55013, 32.67391 ] } },
{ "type": "Feature", "properties": { "Name": "LA PAZ COUNTY ADULT DETENTION FACILITY", "Address": "1109 ARIZONA AVE.", "City": "PARKER", "State": "AZ", "Zip": 85344, "AOR": "PHO", "Type": "USMS IGA", "MF": "Female\/Male", "ADP_2020": "3", "OU72": "Under 72", "Inspect_Standard": "NDS", "Inspect_Date": "9\/27\/18", "Med_Person": "N\/A", "ICE_Status": "ICE Non-Dedicated Facility", "Latitude": 34.0755235, "Longitude": -114.2219924, "ADP": 3 }, "geometry": { "type": "Point", "coordinates": [ -114.22199, 34.07552 ] } },
{ "type": "Feature", "properties": { "Name": "LA PLATA COUNTY JAIL", "Address": "742 TURNER DRIVE", "City": "DURANGO", "State": "CO", "Zip": 81303, "AOR": "DEN", "Type": "USMS IGA", "MF": "Female\/Male", "ADP_2020": "0", "OU72": "Under 72", "Inspect_Standard": "NDS", "Inspect_Date": "9\/8\/17", "Med_Person": "N\/A", "ICE_Status": "ICE Non-Dedicated Facility", "Latitude": 37.11562238, "Longitude": -107.8908859, "ADP": 0 }, "geometry": { "type": "Point", "coordinates": [ -107.89089, 37.11562 ] } },
{ "type": "Feature", "properties": { "Name": "LA SALLE COUNTY REGIONAL DETENTION CENTER", "Address": "832 EAST TEXAS STATE HIGHWAY 44", "City": "ENCINAL", "State": "TX", "Zip": 78019, "AOR": "SNA", "Type": "USMS IGA", "MF": "Male", "ADP_2020": "2", "OU72": "Over 72", "Inspect_Standard": "NDS", "Inspect_Date": "9\/19\/19", "Med_Person": "N\/A", "ICE_Status": "ICE Non-Dedicated Facility", "Latitude": 28.04206406, "Longitude": -99.39661092, "ADP": 2 }, "geometry": { "type": "Point", "coordinates": [ -99.39661, 28.04206 ] } },
{ "type": "Feature", "properties": { "Name": "LASALLE CORR CTR OLLA", "Address": "15976 HWY 165", "City": "OLLA", "State": "LA", "Zip": 71465, "AOR": "NOL", "Type": "IGSA", "MF": "Female\/Male", "ADP_2020": "453", "OU72": null, "Inspect_Standard": "PBNDS 2011", "Inspect_Date": "11\/15\/19", "Med_Person": "N\/A", "ICE_Status": "ICE Non-Dedicated Facility", "Latitude": 31.86773824, "Longitude": -92.18815877, "ADP": 453 }, "geometry": { "type": "Point", "coordinates": [ -92.18816, 31.86774 ] } },
{ "type": "Feature", "properties": { "Name": "LEXINGTON COUNTY JAIL", "Address": "521 GIBSON ROAD", "City": "LEXINGTON", "State": "SC", "Zip": 29072, "AOR": "ATL", "Type": "USMS IGA", "MF": "Female\/Male", "ADP_2020": "2", "OU72": "Under 72", "Inspect_Standard": "NDS", "Inspect_Date": "9\/15\/17", "Med_Person": "N\/A", "ICE_Status": "ICE Non-Dedicated Facility", "Latitude": 34.00042108, "Longitude": -81.27550715, "ADP": 2 }, "geometry": { "type": "Point", "coordinates": [ -81.27551, 34.00042 ] } },
{ "type": "Feature", "properties": { "Name": "LIMESTONE COUNTY DETENTION CENTER", "Address": "910 NORTH TYUS STREET", "City": "GROESBECK", "State": "TX", "Zip": 76642, "AOR": "SNA", "Type": "USMS IGA", "MF": "Male", "ADP_2020": "328", "OU72": "Over 72", "Inspect_Standard": "NDS", "Inspect_Date": "10\/24\/19", "Med_Person": "N\/A", "ICE_Status": "ICE Non-Dedicated Facility", "Latitude": 31.50128133, "Longitude": -96.51758302, "ADP": 328 }, "geometry": { "type": "Point", "coordinates": [ -96.51758, 31.50128 ] } },
{ "type": "Feature", "properties": { "Name": "LINCOLN COUNTY DETENTION CENTER", "Address": "65 BUSINESS PARK DRIVE", "City": "TROY", "State": "MO", "Zip": 63379, "AOR": "CHI", "Type": "IGSA", "MF": "Female\/Male", "ADP_2020": "6", "OU72": "Over 72", "Inspect_Standard": "NDS", "Inspect_Date": "9\/19\/18", "Med_Person": "N\/A", "ICE_Status": "ICE Non-Dedicated Facility", "Latitude": 38.99817469, "Longitude": -90.98880355, "ADP": 6 }, "geometry": { "type": "Point", "coordinates": [ -90.9888, 38.99817 ] } },
{ "type": "Feature", "properties": { "Name": "LINN COUNTY JAIL", "Address": "53 3RD AVENUE BRIDGE", "City": "CEDAR RAPIDS", "State": "IA", "Zip": 52401, "AOR": "SPM", "Type": "USMS IGA", "MF": "Female\/Male", "ADP_2020": "6", "OU72": "Over 72", "Inspect_Standard": "NDS", "Inspect_Date": "6\/20\/19", "Med_Person": "N\/A", "ICE_Status": "ICE Non-Dedicated Facility", "Latitude": 41.9754361, "Longitude": -91.65854298, "ADP": 6 }, "geometry": { "type": "Point", "coordinates": [ -91.65854, 41.97544 ] } },
{ "type": "Feature", "properties": { "Name": "LONOKE POLICE DEPARTMENT", "Address": "203 W. FRONT STREET", "City": "LONOKE", "State": "AR", "Zip": 72086, "AOR": "NOL", "Type": "IGSA", "MF": "Female\/Male", "ADP_2020": "2", "OU72": "Under 72", "Inspect_Standard": "NDS", "Inspect_Date": "9\/18\/18", "Med_Person": "N\/A", "ICE_Status": "ICE Non-Dedicated Facility", "Latitude": 34.80893297, "Longitude": -91.90936686000001, "ADP": 2 }, "geometry": { "type": "Point", "coordinates": [ -91.90937, 34.80893 ] } },
{ "type": "Feature", "properties": { "Name": "LUBBOCK COUNTY DETENTION CENTER", "Address": "811 MAIN STREET", "City": "LUBBOCK", "State": "TX", "Zip": 79401, "AOR": "DAL", "Type": "USMS IGA", "MF": "Female\/Male", "ADP_2020": "1", "OU72": "Under 72", "Inspect_Standard": "NDS", "Inspect_Date": "10\/20\/17", "Med_Person": "N\/A", "ICE_Status": "ICE Non-Dedicated Facility", "Latitude": 33.58788284, "Longitude": -101.851415, "ADP": 1 }, "geometry": { "type": "Point", "coordinates": [ -101.85142, 33.58788 ] } },
{ "type": "Feature", "properties": { "Name": "MAINE YOUTH CENTER - LONG CREEK", "Address": "675 WESTBROOK ST.", "City": "SOUTH PORTLAND", "State": "ME", "Zip": 4106, "AOR": "BOS", "Type": "JUVENILE", "MF": "Female\/Male", "ADP_2020": "0", "OU72": "Under 72", "Inspect_Standard": "JFRMU Juvenile", "Inspect_Date": "12\/31\/19", "Med_Person": "N\/A", "ICE_Status": "ICE Non-Dedicated Facility", "Latitude": 43.63152581, "Longitude": -70.28592231, "ADP": 0 }, "geometry": { "type": "Point", "coordinates": [ -70.28592, 43.63153 ] } },
{ "type": "Feature", "properties": { "Name": "MCHENRY COUNTY CORRECTIONAL FACILITY", "Address": "2200 NORTH SEMINARY AVENUE", "City": "WOODSTOCK", "State": "IL", "Zip": 60098, "AOR": "CHI", "Type": "USMS IGA", "MF": "Female\/Male", "ADP_2020": "251", "OU72": "Over 72", "Inspect_Standard": "NDS", "Inspect_Date": "6\/13\/19", "Med_Person": "N\/A", "ICE_Status": "ICE Non-Dedicated Facility", "Latitude": 42.32529209, "Longitude": -88.4578518, "ADP": 251 }, "geometry": { "type": "Point", "coordinates": [ -88.45785, 42.32529 ] } },
{ "type": "Feature", "properties": { "Name": "MECKLENBURG COUNTY DETENTION CENTER NORTH", "Address": "5234 SPECTOR DRIVE", "City": "CHARLOTTE", "State": "NC", "Zip": 28202, "AOR": "ATL", "Type": "USMS IGA", "MF": "Female\/Male", "ADP_2020": "0", "OU72": "Under 72", "Inspect_Standard": "NDS", "Inspect_Date": "10\/15\/18", "Med_Person": "N\/A", "ICE_Status": "ICE Non-Dedicated Facility", "Latitude": 35.2277525, "Longitude": -80.84460231, "ADP": 0 }, "geometry": { "type": "Point", "coordinates": [ -80.8446, 35.22775 ] } },
{ "type": "Feature", "properties": { "Name": "MILLER COUNTY JAIL", "Address": "2300 EAST STREET", "City": "TEXARKANA", "State": "AR", "Zip": 71854, "AOR": "NOL", "Type": "USMS IGA", "MF": "Female\/Male", "ADP_2020": "0", "OU72": "Under 72", "Inspect_Standard": "NDS", "Inspect_Date": "9\/11\/18", "Med_Person": "N\/A", "ICE_Status": "ICE Non-Dedicated Facility", "Latitude": 33.44697601, "Longitude": -93.90149576, "ADP": 0 }, "geometry": { "type": "Point", "coordinates": [ -93.9015, 33.44698 ] } },
{ "type": "Feature", "properties": { "Name": "MINICASSIA DETENTION CENTER", "Address": "1415 ALBION AVENUE", "City": "BURLEY", "State": "ID", "Zip": 83318, "AOR": "SLC", "Type": "IGSA", "MF": "Female\/Male", "ADP_2020": "4", "OU72": "Over 72", "Inspect_Standard": "NDS", "Inspect_Date": "9\/17\/18", "Med_Person": "N\/A", "ICE_Status": "ICE Non-Dedicated Facility", "Latitude": 42.43682228, "Longitude": -113.8212917, "ADP": 4 }, "geometry": { "type": "Point", "coordinates": [ -113.82129, 42.43682 ] } },
{ "type": "Feature", "properties": { "Name": "MOFFAT COUNTY JAIL", "Address": "800 WEST 1ST STREET", "City": "CRAIG", "State": "CO", "Zip": 81625, "AOR": "DEN", "Type": "IGSA", "MF": "Female\/Male", "ADP_2020": "0", "OU72": "Under 72", "Inspect_Standard": "NDS", "Inspect_Date": "9\/18\/18", "Med_Person": "N\/A", "ICE_Status": "ICE Non-Dedicated Facility", "Latitude": 40.73379713, "Longitude": -107.6871021, "ADP": 0 }, "geometry": { "type": "Point", "coordinates": [ -107.6871, 40.7338 ] } },
{ "type": "Feature", "properties": { "Name": "MONROE COUNTY DETENTION CENTER", "Address": "5501 COLLEGE ROAD", "City": "KEY WEST", "State": "FL", "Zip": 33040, "AOR": "MIA", "Type": "IGSA", "MF": "Male", "ADP_2020": "80", "OU72": "Over 72", "Inspect_Standard": "PBNDS 2008", "Inspect_Date": "8\/1\/19", "Med_Person": "N\/A", "ICE_Status": "ICE Non-Dedicated Facility", "Latitude": 24.5715552, "Longitude": -81.89098681, "ADP": 80 }, "geometry": { "type": "Point", "coordinates": [ -81.89099, 24.57156 ] } },
{ "type": "Feature", "properties": { "Name": "MONROE COUNTY DETENTION-DORM", "Address": "7000 EAST DUNBAR ROAD", "City": "MONROE", "State": "MI", "Zip": 48161, "AOR": "DET", "Type": "IGSA", "MF": "Male", "ADP_2020": "74", "OU72": "Over 72", "Inspect_Standard": "NDS", "Inspect_Date": "8\/15\/19", "Med_Person": "N\/A", "ICE_Status": "ICE Non-Dedicated Facility", "Latitude": 41.90803646, "Longitude": -83.47191572, "ADP": 74 }, "geometry": { "type": "Point", "coordinates": [ -83.47192, 41.90804 ] } },
{ "type": "Feature", "properties": { "Name": "MONTGOMERY CITY JAIL", "Address": "320 NORTH RIPLEY STREET", "City": "MONTGOMERY", "State": "AL", "Zip": 36104, "AOR": "NOL", "Type": "IGSA", "MF": "Female\/Male", "ADP_2020": "3", "OU72": "Over 72", "Inspect_Standard": "NDS", "Inspect_Date": "9\/27\/18", "Med_Person": "N\/A", "ICE_Status": "ICE Non-Dedicated Facility", "Latitude": 32.39969646, "Longitude": -86.32501162, "ADP": 3 }, "geometry": { "type": "Point", "coordinates": [ -86.32501, 32.3997 ] } },
{ "type": "Feature", "properties": { "Name": "MONTGOMERY COUNTY JAIL", "Address": "211 EAST THIRD STREET", "City": "MONTGOMERY CITY", "State": "MO", "Zip": 63361, "AOR": "CHI", "Type": "IGSA", "MF": "Female\/Male", "ADP_2020": "26", "OU72": "Over 72", "Inspect_Standard": "NDS", "Inspect_Date": "11\/7\/19", "Med_Person": "N\/A", "ICE_Status": "ICE Non-Dedicated Facility", "Latitude": 38.96249417, "Longitude": -91.55447869, "ADP": 26 }, "geometry": { "type": "Point", "coordinates": [ -91.55448, 38.96249 ] } },
{ "type": "Feature", "properties": { "Name": "MORGAN COUNTY ADULT DETENTION CENTER", "Address": "211 EAST NEWTON STREET", "City": "VERSAILLES", "State": "MO", "Zip": 65084, "AOR": "CHI", "Type": "IGSA", "MF": "Male", "ADP_2020": "53", "OU72": "Over 72", "Inspect_Standard": "NDS", "Inspect_Date": "2\/22\/19", "Med_Person": "N\/A", "ICE_Status": "ICE Non-Dedicated Facility", "Latitude": 38.43573667, "Longitude": -92.85339432000001, "ADP": 53 }, "geometry": { "type": "Point", "coordinates": [ -92.85339, 38.43574 ] } },
{ "type": "Feature", "properties": { "Name": "MORROW COUNTY CORRECTIONAL FACILITY", "Address": "101 HOME ROAD", "City": "MOUNT GILEAD", "State": "OH", "Zip": 43338, "AOR": "DET", "Type": "IGSA", "MF": "Female\/Male", "ADP_2020": "31", "OU72": "Over 72", "Inspect_Standard": "NDS", "Inspect_Date": "3\/8\/18", "Med_Person": "N\/A", "ICE_Status": "ICE Non-Dedicated Facility", "Latitude": 40.56049935, "Longitude": -82.7594643, "ADP": 31 }, "geometry": { "type": "Point", "coordinates": [ -82.75946, 40.5605 ] } },
{ "type": "Feature", "properties": { "Name": "NATRONA COUNTY JAIL", "Address": "1100 BRUCE LANE", "City": "CASPER", "State": "WY", "Zip": 82601, "AOR": "DEN", "Type": "USMS IGA", "MF": "Female\/Male", "ADP_2020": "1", "OU72": "Under 72", "Inspect_Standard": "NDS", "Inspect_Date": "9\/18\/18", "Med_Person": "N\/A", "ICE_Status": "ICE Non-Dedicated Facility", "Latitude": 43.09718673, "Longitude": -106.3874343, "ADP": 1 }, "geometry": { "type": "Point", "coordinates": [ -106.38743, 43.09719 ] } },
{ "type": "Feature", "properties": { "Name": "NEVADA SOUTHERN DETENTION CENTER", "Address": "2190 EAST MESQUITE AVENUE", "City": "PAHRUMP", "State": "NV", "Zip": 89060, "AOR": "SLC", "Type": "USMS IGA", "MF": "Female\/Male", "ADP_2020": "189", "OU72": "Over 72", "Inspect_Standard": "PBNDS 2008", "Inspect_Date": "7\/25\/19", "Med_Person": "N\/A", "ICE_Status": "ICE Non-Dedicated Facility", "Latitude": 36.39428564, "Longitude": -116.0634423, "ADP": 189 }, "geometry": { "type": "Point", "coordinates": [ -116.06344, 36.39429 ] } },
{ "type": "Feature", "properties": { "Name": "NEW HANOVER COUNTY JAIL", "Address": "3950 JUVENILE RD", "City": "CASTLE HAYNE", "State": "NC", "Zip": 28429, "AOR": "ATL", "Type": "IGSA", "MF": "Female\/Male", "ADP_2020": "2", "OU72": "Under 72", "Inspect_Standard": "NDS", "Inspect_Date": "9\/15\/17", "Med_Person": "N\/A", "ICE_Status": "ICE Non-Dedicated Facility", "Latitude": 34.34196367, "Longitude": -77.90116022, "ADP": 2 }, "geometry": { "type": "Point", "coordinates": [ -77.90116, 34.34196 ] } },
{ "type": "Feature", "properties": { "Name": "NOBLES COUNTY JAIL", "Address": "1530 AIRPORT ROAD", "City": "WORTHINGTON", "State": "MN", "Zip": 56187, "AOR": "SPM", "Type": "IGSA", "MF": "Female\/Male", "ADP_2020": "2", "OU72": "Over 72", "Inspect_Standard": "NDS", "Inspect_Date": "5\/24\/18", "Med_Person": "N\/A", "ICE_Status": "ICE Non-Dedicated Facility", "Latitude": 43.62387477, "Longitude": -95.5828431, "ADP": 2 }, "geometry": { "type": "Point", "coordinates": [ -95.58284, 43.62387 ] } },
{ "type": "Feature", "properties": { "Name": "NORTHERN OREGON CORRECTIONAL FACILITY", "Address": "211 WEBBER ROAD", "City": "THE DALLES", "State": "OR", "Zip": 97058, "AOR": "SEA", "Type": "IGSA", "MF": "Male", "ADP_2020": "13", "OU72": "Over 72", "Inspect_Standard": "NDS", "Inspect_Date": "10\/31\/19", "Med_Person": "N\/A", "ICE_Status": "ICE Non-Dedicated Facility", "Latitude": 45.53878287, "Longitude": -121.1532777, "ADP": 13 }, "geometry": { "type": "Point", "coordinates": [ -121.15328, 45.53878 ] } },
{ "type": "Feature", "properties": { "Name": "NORTHERN OREGON JUVENILE DETENTION", "Address": "211 WEBBER STREET", "City": "THE DALLES", "State": "OR", "Zip": 97058, "AOR": "SEA", "Type": "JUVENILE", "MF": "Female\/Male", "ADP_2020": "1", "OU72": "Over 72", "Inspect_Standard": "JFRMU Juvenile", "Inspect_Date": "7\/18\/19", "Med_Person": "N\/A", "ICE_Status": "ICE Non-Dedicated Facility", "Latitude": 45.53878287, "Longitude": -121.1532777, "ADP": 1 }, "geometry": { "type": "Point", "coordinates": [ -121.15328, 45.53878 ] } },
{ "type": "Feature", "properties": { "Name": "NORTHERN VIRGINIA JUVENILE DETENTION CENTER", "Address": "200 SOUTH WHITING STREET", "City": "ALEXANDRIA", "State": "VA", "Zip": 22304, "AOR": "WAS", "Type": "JUVENILE", "MF": "Female\/Male", "ADP_2020": "0", "OU72": "Under 72", "Inspect_Standard": "N\/A", "Inspect_Date": "N\/A", "Med_Person": "N\/A", "ICE_Status": "ICE Non-Dedicated Facility", "Latitude": 38.81376701, "Longitude": -77.11401076, "ADP": 0 }, "geometry": { "type": "Point", "coordinates": [ -77.11401, 38.81377 ] } },
{ "type": "Feature", "properties": { "Name": "NORTHWEST STATE CORRECTIONAL CENTER", "Address": "3649 LOWER NEWTON ROAD", "City": "SWANTON", "State": "VT", "Zip": 5488, "AOR": "BOS", "Type": "USMS IGA", "MF": "Female\/Male", "ADP_2020": "1", "OU72": "Under 72", "Inspect_Standard": "NDS", "Inspect_Date": "9\/5\/18", "Med_Person": "N\/A", "ICE_Status": "ICE Non-Dedicated Facility", "Latitude": 44.92141294, "Longitude": -73.1248964, "ADP": 1 }, "geometry": { "type": "Point", "coordinates": [ -73.1249, 44.92141 ] } },
{ "type": "Feature", "properties": { "Name": "NYE COUNTY DETENTION CENTER, SOUTHERN (PAHRUMP)", "Address": "1520 E. BASIN ROAD", "City": "PAHRUMP", "State": "NV", "Zip": 89060, "AOR": "SLC", "Type": "IGSA", "MF": "Female\/Male", "ADP_2020": "77", "OU72": "Over 72", "Inspect_Standard": "NDS", "Inspect_Date": "12\/5\/19", "Med_Person": "N\/A", "ICE_Status": "ICE Non-Dedicated Facility", "Latitude": 36.39428564, "Longitude": -116.0634423, "ADP": 77 }, "geometry": { "type": "Point", "coordinates": [ -116.06344, 36.39429 ] } },
{ "type": "Feature", "properties": { "Name": "OGLE COUNTY JAIL", "Address": "103 JEFFERSON STREET", "City": "OREGON", "State": "IL", "Zip": 61061, "AOR": "CHI", "Type": "USMS IGA", "MF": "Female\/Male", "ADP_2020": "0", "OU72": "Over 72", "Inspect_Standard": "N\/A", "Inspect_Date": "New Facility", "Med_Person": "N\/A", "ICE_Status": "ICE Non-Dedicated Facility", "Latitude": 42.00024944, "Longitude": -89.33982649, "ADP": 0 }, "geometry": { "type": "Point", "coordinates": [ -89.33983, 42.00025 ] } },
{ "type": "Feature", "properties": { "Name": "OKMULGEE COUNTY JAIL", "Address": "314 W. 7TH STREET", "City": "OKMULGEE", "State": "OK", "Zip": 74447, "AOR": "DAL", "Type": "IGSA", "MF": "Male", "ADP_2020": "222", "OU72": "Over 72", "Inspect_Standard": "PBNDS 2011", "Inspect_Date": "9\/19\/19", "Med_Person": "N\/A", "ICE_Status": "ICE Non-Dedicated Facility", "Latitude": 35.65123096, "Longitude": -96.00320249000001, "ADP": 222 }, "geometry": { "type": "Point", "coordinates": [ -96.0032, 35.65123 ] } },
{ "type": "Feature", "properties": { "Name": "OLDHAM COUNTY JAIL", "Address": "100 W MAIN STREET", "City": "LA GRANGE", "State": "KY", "Zip": 40031, "AOR": "CHI", "Type": "IGSA", "MF": "Female\/Male", "ADP_2020": "3", "OU72": "Over 72", "Inspect_Standard": "NDS", "Inspect_Date": "8\/16\/18", "Med_Person": "N\/A", "ICE_Status": "ICE Non-Dedicated Facility", "Latitude": 38.42770234, "Longitude": -85.39478579, "ADP": 3 }, "geometry": { "type": "Point", "coordinates": [ -85.39479, 38.4277 ] } },
{ "type": "Feature", "properties": { "Name": "ORANGE COUNTY INTAKE RELEASE FACILITY", "Address": "550 NORTH FLOWER STREET", "City": "SANTA ANA", "State": "CA", "Zip": 92703, "AOR": "LOS", "Type": "IGSA", "MF": "Female\/Male", "ADP_2020": "0", "OU72": "Under 72", "Inspect_Standard": "NDS", "Inspect_Date": "9\/27\/18", "Med_Person": "N\/A", "ICE_Status": "ICE Non-Dedicated Facility", "Latitude": 33.74872034, "Longitude": -117.9060796, "ADP": 0 }, "geometry": { "type": "Point", "coordinates": [ -117.90608, 33.74872 ] } },
{ "type": "Feature", "properties": { "Name": "ORANGE COUNTY JAIL", "Address": "110 WELLS FARM ROAD", "City": "GOSHEN", "State": "NY", "Zip": 10924, "AOR": "NYC", "Type": "IGSA", "MF": "Female\/Male", "ADP_2020": "112", "OU72": "Over 72", "Inspect_Standard": "NDS", "Inspect_Date": "4\/18\/19", "Med_Person": "N\/A", "ICE_Status": "ICE Non-Dedicated Facility", "Latitude": 41.37947869, "Longitude": -74.34665593, "ADP": 112 }, "geometry": { "type": "Point", "coordinates": [ -74.34666, 41.37948 ] } },
{ "type": "Feature", "properties": { "Name": "ORANGE COUNTY JAIL", "Address": "3855 SOUTH JOHN YOUNG PARKWAY", "City": "ORLANDO", "State": "FL", "Zip": 32839, "AOR": "MIA", "Type": "USMS IGA", "MF": "Female\/Male", "ADP_2020": "3", "OU72": "Under 72", "Inspect_Standard": "NDS", "Inspect_Date": "9\/21\/18", "Med_Person": "N\/A", "ICE_Status": "ICE Non-Dedicated Facility", "Latitude": 28.48832112, "Longitude": -81.40715425, "ADP": 3 }, "geometry": { "type": "Point", "coordinates": [ -81.40715, 28.48832 ] } },
{ "type": "Feature", "properties": { "Name": "OTERO COUNTY PRISON FACILITY", "Address": "10 MCGREGOR RANGE ROAD", "City": "CHAPARRAL", "State": "NM", "Zip": 88081, "AOR": "ELP", "Type": "USMS IGA", "MF": "Female\/Male", "ADP_2020": "0", "OU72": "Over 72", "Inspect_Standard": "NDS", "Inspect_Date": "2\/9\/17", "Med_Person": "N\/A", "ICE_Status": "ICE Non-Dedicated Facility", "Latitude": 32.22387951, "Longitude": -106.2630949, "ADP": 0 }, "geometry": { "type": "Point", "coordinates": [ -106.26309, 32.22388 ] } },
{ "type": "Feature", "properties": { "Name": "PENNINGTON COUNTY JAIL (SOUTH DAKOTA)", "Address": "307 SAINT JOSEPH STREET", "City": "RAPID CITY", "State": "SD", "Zip": 57701, "AOR": "SPM", "Type": "USMS IGA", "MF": "Female\/Male", "ADP_2020": "0", "OU72": "Over 72", "Inspect_Standard": "NDS", "Inspect_Date": "9\/24\/18", "Med_Person": "N\/A", "ICE_Status": "ICE Non-Dedicated Facility", "Latitude": 44.14147998, "Longitude": -103.2051834, "ADP": 0 }, "geometry": { "type": "Point", "coordinates": [ -103.20518, 44.14148 ] } },
{ "type": "Feature", "properties": { "Name": "PHELPS COUNTY JAIL", "Address": "715 5TH AVENUE", "City": "HOLDREGE", "State": "NE", "Zip": 68949, "AOR": "SPM", "Type": "USMS IGA", "MF": "Female\/Male", "ADP_2020": "6", "OU72": "Over 72", "Inspect_Standard": "NDS", "Inspect_Date": "7\/18\/19", "Med_Person": "N\/A", "ICE_Status": "ICE Non-Dedicated Facility", "Latitude": 40.42913279, "Longitude": -99.38990893, "ADP": 6 }, "geometry": { "type": "Point", "coordinates": [ -99.38991, 40.42913 ] } },
{ "type": "Feature", "properties": { "Name": "PIKE COUNTY CORRECTIONAL FACILITY", "Address": "175 PIKE COUNTY BOULEVARD", "City": "LORDS VALLEY", "State": "PA", "Zip": 18428, "AOR": "PHI", "Type": "IGSA", "MF": "Male", "ADP_2020": "192", "OU72": "Over 72", "Inspect_Standard": "PBNDS 2008", "Inspect_Date": "4\/25\/19", "Med_Person": "N\/A", "ICE_Status": "ICE Non-Dedicated Facility", "Latitude": 41.41618081, "Longitude": -75.12305993, "ADP": 192 }, "geometry": { "type": "Point", "coordinates": [ -75.12306, 41.41618 ] } },
{ "type": "Feature", "properties": { "Name": "PINELLAS COUNTY JAIL", "Address": "14400 49TH STREET NORTH", "City": "CLEARWATER", "State": "FL", "Zip": 33762, "AOR": "MIA", "Type": "USMS IGA", "MF": "Female\/Male", "ADP_2020": "6", "OU72": "Under 72", "Inspect_Standard": "NDS", "Inspect_Date": "9\/21\/18", "Med_Person": "N\/A", "ICE_Status": "ICE Non-Dedicated Facility", "Latitude": 27.89840927, "Longitude": -82.67935864, "ADP": 6 }, "geometry": { "type": "Point", "coordinates": [ -82.67936, 27.89841 ] } },
{ "type": "Feature", "properties": { "Name": "PLATTE COUNTY DETENTION CENTER", "Address": "415 THIRD STREET", "City": "PLATTE CITY", "State": "MO", "Zip": 64079, "AOR": "CHI", "Type": "IGSA", "MF": "Female\/Male", "ADP_2020": "10", "OU72": "Over 72", "Inspect_Standard": "NDS", "Inspect_Date": "12\/12\/19", "Med_Person": "N\/A", "ICE_Status": "ICE Non-Dedicated Facility", "Latitude": 39.35780538, "Longitude": -94.79590937, "ADP": 10 }, "geometry": { "type": "Point", "coordinates": [ -94.79591, 39.35781 ] } },
{ "type": "Feature", "properties": { "Name": "PLATTE COUNTY JAIL", "Address": "850 MAPLE STREET", "City": "WHEATLAND", "State": "WY", "Zip": 82201, "AOR": "DEN", "Type": "USMS IGA", "MF": "Female\/Male", "ADP_2020": "1", "OU72": "Under 72", "Inspect_Standard": "NDS", "Inspect_Date": "9\/18\/18", "Med_Person": "N\/A", "ICE_Status": "ICE Non-Dedicated Facility", "Latitude": 42.01851838, "Longitude": -105.1468492, "ADP": 1 }, "geometry": { "type": "Point", "coordinates": [ -105.14685, 42.01852 ] } },
{ "type": "Feature", "properties": { "Name": "PLYMOUTH COUNTY CORRECTIONAL FACILITY", "Address": "26 LONG POND ROAD", "City": "PLYMOUTH", "State": "MA", "Zip": 2360, "AOR": "BOS", "Type": "IGSA", "MF": "Male", "ADP_2020": "309", "OU72": "Over 72", "Inspect_Standard": "NDS", "Inspect_Date": "6\/13\/19", "Med_Person": "N\/A", "ICE_Status": "ICE Non-Dedicated Facility", "Latitude": 41.88322597, "Longitude": -70.63064821, "ADP": 309 }, "geometry": { "type": "Point", "coordinates": [ -70.63065, 41.88323 ] } },
{ "type": "Feature", "properties": { "Name": "POLK COUNTY JAIL", "Address": "1985 NE 51ST PLACE", "City": "DES MOINES", "State": "IA", "Zip": 50313, "AOR": "SPM", "Type": "USMS IGA", "MF": "Female\/Male", "ADP_2020": "32", "OU72": "Over 72", "Inspect_Standard": "NDS", "Inspect_Date": "8\/1\/19", "Med_Person": "N\/A", "ICE_Status": "ICE Non-Dedicated Facility", "Latitude": 41.65459806, "Longitude": -93.62155911000001, "ADP": 32 }, "geometry": { "type": "Point", "coordinates": [ -93.62156, 41.6546 ] } },
{ "type": "Feature", "properties": { "Name": "POTTAWATTAMIE COUNTY JAIL", "Address": "1400 BIG LAKE ROAD", "City": "COUNCIL BLUFFS", "State": "IA", "Zip": 51501, "AOR": "SPM", "Type": "USMS IGA", "MF": "Female\/Male", "ADP_2020": "3", "OU72": "Over 72", "Inspect_Standard": "NDS", "Inspect_Date": "4\/12\/18", "Med_Person": "N\/A", "ICE_Status": "ICE Non-Dedicated Facility", "Latitude": 41.22799858, "Longitude": -95.87890942, "ADP": 3 }, "geometry": { "type": "Point", "coordinates": [ -95.87891, 41.228 ] } },
{ "type": "Feature", "properties": { "Name": "PULASKI COUNTY JAIL", "Address": "1026 SHAWNEE COLLEGE ROAD", "City": "ULLIN", "State": "IL", "Zip": 62992, "AOR": "CHI", "Type": "IGSA", "MF": "Female\/Male", "ADP_2020": "152", "OU72": "Over 72", "Inspect_Standard": "PBNDS 2011", "Inspect_Date": "3\/14\/19", "Med_Person": "N\/A", "ICE_Status": "ICE Non-Dedicated Facility", "Latitude": 37.27903893, "Longitude": -89.1667063, "ADP": 152 }, "geometry": { "type": "Point", "coordinates": [ -89.16671, 37.27904 ] } },
{ "type": "Feature", "properties": { "Name": "RANDALL COUNTY JAIL", "Address": "9100 SOUTH GEORGIA STREET", "City": "AMARILLO", "State": "TX", "Zip": 79118, "AOR": "DAL", "Type": "USMS IGA", "MF": "Female\/Male", "ADP_2020": "2", "OU72": "Under 72", "Inspect_Standard": "NDS", "Inspect_Date": "10\/11\/17", "Med_Person": "N\/A", "ICE_Status": "ICE Non-Dedicated Facility", "Latitude": 35.09861929, "Longitude": -101.7388407, "ADP": 2 }, "geometry": { "type": "Point", "coordinates": [ -101.73884, 35.09862 ] } },
{ "type": "Feature", "properties": { "Name": "RICHWOOD CORRECTIONAL CENTER", "Address": "180 PINE BAYOU CIRCLE", "City": "RICHWOOD", "State": "LA", "Zip": 71202, "AOR": "NOL", "Type": "IGSA", "MF": "Male", "ADP_2020": "785", "OU72": "Over 72", "Inspect_Standard": "PBNDS 2011", "Inspect_Date": "10\/3\/19", "Med_Person": "N\/A", "ICE_Status": "ICE Non-Dedicated Facility", "Latitude": 32.39592354, "Longitude": -92.05624843, "ADP": 785 }, "geometry": { "type": "Point", "coordinates": [ -92.05625, 32.39592 ] } },
{ "type": "Feature", "properties": { "Name": "RIO GRANDE COUNTY JAIL", "Address": "640 CHERRY STREET", "City": "DEL NORTE", "State": "CO", "Zip": 81132, "AOR": "DEN", "Type": "IGSA", "MF": "Female\/Male", "ADP_2020": "0", "OU72": "Under 72", "Inspect_Standard": "NDS", "Inspect_Date": "7\/12\/18", "Med_Person": "N\/A", "ICE_Status": "ICE Non-Dedicated Facility", "Latitude": 37.70743459, "Longitude": -106.4288355, "ADP": 0 }, "geometry": { "type": "Point", "coordinates": [ -106.42884, 37.70743 ] } },
{ "type": "Feature", "properties": { "Name": "RIVER CORRECTIONAL CENTER", "Address": "26362 HIGHWAY 15", "City": "FERRIDAY", "State": "LA", "Zip": 71334, "AOR": "NOL", "Type": "IGSA", "MF": "Male", "ADP_2020": "397", "OU72": "Over 72", "Inspect_Standard": "NDS", "Inspect_Date": "10\/24\/19", "Med_Person": "N\/A", "ICE_Status": "ICE Non-Dedicated Facility", "Latitude": 31.65640854, "Longitude": -91.56304803, "ADP": 397 }, "geometry": { "type": "Point", "coordinates": [ -91.56305, 31.65641 ] } },
{ "type": "Feature", "properties": { "Name": "ROANOKE CITY JAIL", "Address": "340 CAMPBELL AVENUE SOUTHWEST", "City": "ROANOKE", "State": "VA", "Zip": 24016, "AOR": "WAS", "Type": "USMS IGA", "MF": "Female\/Male", "ADP_2020": "0", "OU72": "Under 72", "Inspect_Standard": "NDS", "Inspect_Date": "9\/27\/17", "Med_Person": "N\/A", "ICE_Status": "ICE Non-Dedicated Facility", "Latitude": 37.272924, "Longitude": -79.95409259, "ADP": 0 }, "geometry": { "type": "Point", "coordinates": [ -79.95409, 37.27292 ] } },
{ "type": "Feature", "properties": { "Name": "ROCKINGHAM COUNTY JAIL", "Address": "25 SOUTH LIBERTY STREET", "City": "HARRISONBURG", "State": "VA", "Zip": 22801, "AOR": "WAS", "Type": "USMS IGA", "MF": "Female\/Male", "ADP_2020": "1", "OU72": "Under 72", "Inspect_Standard": "NDS", "Inspect_Date": "9\/27\/17", "Med_Person": "N\/A", "ICE_Status": "ICE Non-Dedicated Facility", "Latitude": 38.40495906, "Longitude": -78.87700876, "ADP": 1 }, "geometry": { "type": "Point", "coordinates": [ -78.87701, 38.40496 ] } },
{ "type": "Feature", "properties": { "Name": "ROLLING PLAINS DETENTION CENTER", "Address": "118 COUNTY ROAD 206", "City": "HASKELL", "State": "TX", "Zip": 79521, "AOR": "DAL", "Type": "USMS IGA", "MF": "Female\/Male", "ADP_2020": "86", "OU72": "Over 72", "Inspect_Standard": "NDS", "Inspect_Date": "8\/8\/19", "Med_Person": "N\/A", "ICE_Status": "ICE Non-Dedicated Facility", "Latitude": 33.12232746, "Longitude": -99.65415022000001, "ADP": 86 }, "geometry": { "type": "Point", "coordinates": [ -99.65415, 33.12233 ] } },
{ "type": "Feature", "properties": { "Name": "SAINT CLAIR COUNTY JAIL", "Address": "1170 MICHIGAN ROAD", "City": "PORT HURON", "State": "MI", "Zip": 48060, "AOR": "DET", "Type": "IGSA", "MF": "Male", "ADP_2020": "58", "OU72": "Over 72", "Inspect_Standard": "PBNDS 2008", "Inspect_Date": "10\/31\/19", "Med_Person": "N\/A", "ICE_Status": "ICE Non-Dedicated Facility", "Latitude": 42.98186639, "Longitude": -82.46007761, "ADP": 58 }, "geometry": { "type": "Point", "coordinates": [ -82.46008, 42.98187 ] } },
{ "type": "Feature", "properties": { "Name": "SAINT TAMMANY PARISH JAIL", "Address": "701 NORTH COLUMBIA STREET", "City": "COVINGTON", "State": "LA", "Zip": 70433, "AOR": "NOL", "Type": "IGSA", "MF": "Female\/Male", "ADP_2020": "9", "OU72": "Under 72", "Inspect_Standard": "NDS", "Inspect_Date": "10\/5\/18", "Med_Person": "N\/A", "ICE_Status": "ICE Non-Dedicated Facility", "Latitude": 30.4632755, "Longitude": -90.13838778, "ADP": 9 }, "geometry": { "type": "Point", "coordinates": [ -90.13839, 30.46328 ] } },
{ "type": "Feature", "properties": { "Name": "SALT LAKE COUNTY METRO JAIL", "Address": "3415 SOUTH 900 WEST", "City": "SALT LAKE CITY", "State": "UT", "Zip": 84119, "AOR": "SLC", "Type": "USMS IGA", "MF": "Female\/Male", "ADP_2020": "2", "OU72": "Under 72", "Inspect_Standard": "NDS", "Inspect_Date": "9\/15\/18", "Med_Person": "N\/A", "ICE_Status": "ICE Non-Dedicated Facility", "Latitude": 40.70157329, "Longitude": -111.9461131, "ADP": 2 }, "geometry": { "type": "Point", "coordinates": [ -111.94611, 40.70157 ] } },
{ "type": "Feature", "properties": { "Name": "SAN LUIS REGIONAL DETENTION CENTER", "Address": "406 NORTH AVENUE D", "City": "SAN LUIS", "State": "AZ", "Zip": 85349, "AOR": "SND", "Type": "IGSA", "MF": "Female\/Male", "ADP_2020": "52", "OU72": "Over 72", "Inspect_Standard": "NDS", "Inspect_Date": "5\/2\/19", "Med_Person": "N\/A", "ICE_Status": "ICE Non-Dedicated Facility", "Latitude": 32.49746888, "Longitude": -114.7524208, "ADP": 52 }, "geometry": { "type": "Point", "coordinates": [ -114.75242, 32.49747 ] } },
{ "type": "Feature", "properties": { "Name": "SANTA CRUZ COUNTY JAIL", "Address": "1250 NORTH HOHOKAM DRIVE", "City": "NOGALES", "State": "AZ", "Zip": 85621, "AOR": "PHO", "Type": "USMS IGA", "MF": "Female\/Male", "ADP_2020": "0", "OU72": "Under 72", "Inspect_Standard": "NDS", "Inspect_Date": "9\/27\/18", "Med_Person": "N\/A", "ICE_Status": "ICE Non-Dedicated Facility", "Latitude": 31.42299999, "Longitude": -111.0404257, "ADP": 0 }, "geometry": { "type": "Point", "coordinates": [ -111.04043, 31.423 ] } },
{ "type": "Feature", "properties": { "Name": "SEBASTIAN COUNTY DETENTION CENTER", "Address": "801 SOUTH A STREET", "City": "FORT SMITH", "State": "AR", "Zip": 72901, "AOR": "NOL", "Type": "USMS IGA", "MF": "Female\/Male", "ADP_2020": "1", "OU72": "Under 72", "Inspect_Standard": "NDS", "Inspect_Date": "10\/1\/18", "Med_Person": "N\/A", "ICE_Status": "ICE Non-Dedicated Facility", "Latitude": 35.36641443, "Longitude": -94.41577143000001, "ADP": 1 }, "geometry": { "type": "Point", "coordinates": [ -94.41577, 35.36641 ] } },
{ "type": "Feature", "properties": { "Name": "SENECA COUNTY JAIL", "Address": "3040 SOUTH STATE HIGHWAY 100", "City": "TIFFIN", "State": "OH", "Zip": 44883, "AOR": "DET", "Type": "IGSA", "MF": "Female\/Male", "ADP_2020": "55", "OU72": "Over 72", "Inspect_Standard": "NDS", "Inspect_Date": "10\/3\/19", "Med_Person": "N\/A", "ICE_Status": "ICE Non-Dedicated Facility", "Latitude": 41.1237714, "Longitude": -83.1733493, "ADP": 55 }, "geometry": { "type": "Point", "coordinates": [ -83.17335, 41.12377 ] } },
{ "type": "Feature", "properties": { "Name": "SHAWNEE COUNTY DEPARTMENT OF CORRECTIONS", "Address": "501 SOUTHEAST 8TH AVENUE", "City": "TOPEKA", "State": "KS", "Zip": 66607, "AOR": "CHI", "Type": "IGSA", "MF": "Female\/Male", "ADP_2020": "2", "OU72": "Over 72", "Inspect_Standard": "NDS", "Inspect_Date": "9\/6\/19", "Med_Person": "N\/A", "ICE_Status": "ICE Non-Dedicated Facility", "Latitude": 39.04234103, "Longitude": -95.63572694, "ADP": 2 }, "geometry": { "type": "Point", "coordinates": [ -95.63573, 39.04234 ] } },
{ "type": "Feature", "properties": { "Name": "SHAWNEE COUNTY JUVENILE DETENTION CENTER", "Address": "401 SE 8TH STREET", "City": "TOPEKA", "State": "KS", "Zip": 66607, "AOR": "CHI", "Type": "JUVENILE", "MF": "Female\/Male", "ADP_2020": "0", "OU72": "Under 72", "Inspect_Standard": "JFRMU Juvenile", "Inspect_Date": "9\/30\/19", "Med_Person": "N\/A", "ICE_Status": "ICE Non-Dedicated Facility", "Latitude": 39.04234103, "Longitude": -95.63572694, "ADP": 0 }, "geometry": { "type": "Point", "coordinates": [ -95.63573, 39.04234 ] } },
{ "type": "Feature", "properties": { "Name": "SHERBURNE COUNTY JAIL", "Address": "13880 BUSINESS CENTER DRIVE", "City": "ELK RIVER", "State": "MN", "Zip": 55330, "AOR": "SPM", "Type": "IGSA", "MF": "Female\/Male", "ADP_2020": "305", "OU72": "Over 72", "Inspect_Standard": "NDS", "Inspect_Date": "11\/15\/19", "Med_Person": "N\/A", "ICE_Status": "ICE Non-Dedicated Facility", "Latitude": 45.33432288, "Longitude": -93.56818447000001, "ADP": 305 }, "geometry": { "type": "Point", "coordinates": [ -93.56818, 45.33432 ] } },
{ "type": "Feature", "properties": { "Name": "SOUTH CENTRAL REGIONAL JAIL", "Address": "1001 CENTRE WAY", "City": "CHARLESTON", "State": "WV", "Zip": 25309, "AOR": "PHI", "Type": "USMS IGA", "MF": "Female\/Male", "ADP_2020": "5", "OU72": "Over 72", "Inspect_Standard": "NDS", "Inspect_Date": "8\/23\/18", "Med_Person": "N\/A", "ICE_Status": "ICE Non-Dedicated Facility", "Latitude": 38.30849113, "Longitude": -81.75057308, "ADP": 5 }, "geometry": { "type": "Point", "coordinates": [ -81.75057, 38.30849 ] } },
{ "type": "Feature", "properties": { "Name": "SOUTH LOUISIANA DETENTION CENTER", "Address": "3843 STAGG AVENUE", "City": "BASILE", "State": "LA", "Zip": 70515, "AOR": "NOL", "Type": "IGSA", "MF": "Female\/Male", "ADP_2020": "676", "OU72": "Over 72", "Inspect_Standard": "PBNDS 2011", "Inspect_Date": "11\/7\/19", "Med_Person": "N\/A", "ICE_Status": "ICE Non-Dedicated Facility", "Latitude": 30.45217086, "Longitude": -92.56948523, "ADP": 676 }, "geometry": { "type": "Point", "coordinates": [ -92.56949, 30.45217 ] } },
{ "type": "Feature", "properties": { "Name": "STRAFFORD COUNTY CORRECTIONS", "Address": "266 COUNTY FARM ROAD", "City": "DOVER", "State": "NH", "Zip": 3820, "AOR": "BOS", "Type": "IGSA", "MF": "Female\/Male", "ADP_2020": "83", "OU72": "Over 72", "Inspect_Standard": "PBNDS 2008", "Inspect_Date": "12\/12\/19", "Med_Person": "N\/A", "ICE_Status": "ICE Non-Dedicated Facility", "Latitude": 43.18877957, "Longitude": -70.88680835, "ADP": 83 }, "geometry": { "type": "Point", "coordinates": [ -70.88681, 43.18878 ] } },
{ "type": "Feature", "properties": { "Name": "SUFFOLK COUNTY HOUSE OF CORRECTIONS", "Address": "20 BRADSTON STREET", "City": "BOSTON", "State": "MA", "Zip": 2118, "AOR": "BOS", "Type": "IGSA", "MF": "Female\/Male", "ADP_2020": "8", "OU72": "Over 72", "Inspect_Standard": "NDS", "Inspect_Date": "5\/16\/19", "Med_Person": "N\/A", "ICE_Status": "ICE Non-Dedicated Facility", "Latitude": 42.3381858, "Longitude": -71.07068615, "ADP": 8 }, "geometry": { "type": "Point", "coordinates": [ -71.07069, 42.33819 ] } },
{ "type": "Feature", "properties": { "Name": "TALLAHATCHIE CO CORR FACILITY", "Address": "415 U.S. HIGHWAY 49 North", "City": "TUTWILER", "State": "MS", "Zip": 38963, "AOR": "NOL", "Type": "USMS IGA", "MF": "Male", "ADP_2020": "299", "OU72": "Over 72", "Inspect_Standard": "NDS", "Inspect_Date": "8\/15\/19", "Med_Person": "N\/A", "ICE_Status": "ICE Non-Dedicated Facility", "Latitude": 34.0220375, "Longitude": -90.38976784, "ADP": 299 }, "geometry": { "type": "Point", "coordinates": [ -90.38977, 34.02204 ] } },
{ "type": "Feature", "properties": { "Name": "TELLER COUNTY JAIL", "Address": "288 WEAVERVILLE ROAD", "City": "DIVIDE", "State": "CO", "Zip": 80814, "AOR": "DEN", "Type": "IGSA", "MF": "Female\/Male", "ADP_2020": "22", "OU72": "Over 72", "Inspect_Standard": "NDS", "Inspect_Date": "8\/22\/19", "Med_Person": "N\/A", "ICE_Status": "ICE Non-Dedicated Facility", "Latitude": 38.95727996, "Longitude": -105.1803925, "ADP": 22 }, "geometry": { "type": "Point", "coordinates": [ -105.18039, 38.95728 ] } },
{ "type": "Feature", "properties": { "Name": "TOOELE COUNTY JAIL", "Address": "47 SOUTH MAIN STREET", "City": "TOOELE", "State": "UT", "Zip": 84074, "AOR": "SLC", "Type": "USMS IGA", "MF": "Female\/Male", "ADP_2020": "1", "OU72": "Under 72", "Inspect_Standard": "NDS", "Inspect_Date": "9\/15\/18", "Med_Person": "N\/A", "ICE_Status": "ICE Non-Dedicated Facility", "Latitude": 40.55928028, "Longitude": -112.2732721, "ADP": 1 }, "geometry": { "type": "Point", "coordinates": [ -112.27327, 40.55928 ] } },
{ "type": "Feature", "properties": { "Name": "TORRANCE COUNTY DETENTION FACILITY", "Address": "209 COUNTY ROAD 49", "City": "ESTANCIA", "State": "NM", "Zip": 87016, "AOR": "ELP", "Type": "IGSA", "MF": "Male", "ADP_2020": "293", "OU72": "Over 72", "Inspect_Standard": "PBNDS 2011", "Inspect_Date": "11\/21\/19", "Med_Person": "N\/A", "ICE_Status": "ICE Non-Dedicated Facility", "Latitude": 34.7780202, "Longitude": -105.9220004, "ADP": 293 }, "geometry": { "type": "Point", "coordinates": [ -105.922, 34.77802 ] } },
{ "type": "Feature", "properties": { "Name": "TULSA COUNTY JAIL (DAVID L. MOSS JUSTICE CTR)", "Address": "300 NORTH DENVER AVENUE", "City": "TULSA", "State": "OK", "Zip": 74103, "AOR": "DAL", "Type": "IGSA", "MF": "Female\/Male", "ADP_2020": "61", "OU72": "Over 72", "Inspect_Standard": "PBNDS 2011", "Inspect_Date": "1\/25\/19", "Med_Person": "N\/A", "ICE_Status": "ICE Non-Dedicated Facility", "Latitude": 36.15560048, "Longitude": -95.99455671, "ADP": 61 }, "geometry": { "type": "Point", "coordinates": [ -95.99456, 36.1556 ] } },
{ "type": "Feature", "properties": { "Name": "VAL VERDE CORRECTIONAL FACILITY", "Address": "253 FARM TO MARKET 2523", "City": "DEL RIO", "State": "TX", "Zip": 78840, "AOR": "SNA", "Type": "USMS IGA", "MF": "Female\/Male", "ADP_2020": "1", "OU72": "Under 72", "Inspect_Standard": "NDS", "Inspect_Date": "9\/19\/19", "Med_Person": "N\/A", "ICE_Status": "ICE Non-Dedicated Facility", "Latitude": 29.7401719, "Longitude": -100.8822026, "ADP": 1 }, "geometry": { "type": "Point", "coordinates": [ -100.8822, 29.74017 ] } },
{ "type": "Feature", "properties": { "Name": "WAKE COUNTY SHERIFF DEPARTMENT", "Address": "330 SOUTH SALISBURY STREET", "City": "RALEIGH", "State": "NC", "Zip": 27601, "AOR": "ATL", "Type": "IGSA", "MF": "Female\/Male", "ADP_2020": "0", "OU72": "Under 72", "Inspect_Standard": "NDS", "Inspect_Date": "10\/15\/18", "Med_Person": "N\/A", "ICE_Status": "ICE Non-Dedicated Facility", "Latitude": 35.77363214, "Longitude": -78.63445682, "ADP": 0 }, "geometry": { "type": "Point", "coordinates": [ -78.63446, 35.77363 ] } },
{ "type": "Feature", "properties": { "Name": "WAKULLA COUNTY JAIL", "Address": "15 OAK STREET", "City": "CRAWFORDVILLE", "State": "FL", "Zip": 32327, "AOR": "MIA", "Type": "IGSA", "MF": "Male", "ADP_2020": "89", "OU72": "Over 72", "Inspect_Standard": "NDS", "Inspect_Date": "10\/18\/19", "Med_Person": "N\/A", "ICE_Status": "ICE Non-Dedicated Facility", "Latitude": 30.18258673, "Longitude": -84.30370095000001, "ADP": 89 }, "geometry": { "type": "Point", "coordinates": [ -84.3037, 30.18259 ] } },
{ "type": "Feature", "properties": { "Name": "WASHINGTON COUNTY JAIL (PURGATORY CORRECTIONAL FAC", "Address": "750 SOUTH 5400 WEST", "City": "HURRICANE", "State": "UT", "Zip": 84737, "AOR": "SLC", "Type": "USMS IGA", "MF": "Female\/Male", "ADP_2020": "6", "OU72": "Over 72", "Inspect_Standard": "NDS", "Inspect_Date": "9\/15\/18", "Med_Person": "N\/A", "ICE_Status": "ICE Non-Dedicated Facility", "Latitude": 37.09784548, "Longitude": -113.2329568, "ADP": 6 }, "geometry": { "type": "Point", "coordinates": [ -113.23296, 37.09785 ] } },
{ "type": "Feature", "properties": { "Name": "WASHOE COUNTY JAIL", "Address": "911 PARR BOULEVARD", "City": "RENO", "State": "NV", "Zip": 89512, "AOR": "SLC", "Type": "USMS IGA", "MF": "Female\/Male", "ADP_2020": "14", "OU72": "Over 72", "Inspect_Standard": "NDS", "Inspect_Date": "8\/30\/18", "Med_Person": "N\/A", "ICE_Status": "ICE Non-Dedicated Facility", "Latitude": 39.55289831, "Longitude": -119.8007243, "ADP": 14 }, "geometry": { "type": "Point", "coordinates": [ -119.80072, 39.5529 ] } },
{ "type": "Feature", "properties": { "Name": "WEST TEXAS DETENTION FACILITY", "Address": "401 S. VAQUERO AVE.", "City": "SIERRA BLANCA", "State": "TX", "Zip": 79851, "AOR": "ELP", "Type": "USMS IGA", "MF": "Female\/Male", "ADP_2020": "85", "OU72": "Over 72", "Inspect_Standard": "NDS", "Inspect_Date": "8\/8\/19", "Med_Person": "N\/A", "ICE_Status": "ICE Non-Dedicated Facility", "Latitude": 31.28846632, "Longitude": -105.319782, "ADP": 85 }, "geometry": { "type": "Point", "coordinates": [ -105.31978, 31.28847 ] } },
{ "type": "Feature", "properties": { "Name": "WESTERN TENNESSEE DETENTION FACILITY", "Address": "6299 FINDE NAIFEH DRIVE", "City": "MASON", "State": "TN", "Zip": 38049, "AOR": "NOL", "Type": "USMS IGA", "MF": "Female\/Male", "ADP_2020": "3", "OU72": "Over 72", "Inspect_Standard": "PBNDS 2008", "Inspect_Date": "1\/16\/20", "Med_Person": "N\/A", "ICE_Status": "ICE Non-Dedicated Facility", "Latitude": 35.39031013, "Longitude": -89.54864514, "ADP": 3 }, "geometry": { "type": "Point", "coordinates": [ -89.54865, 35.39031 ] } },
{ "type": "Feature", "properties": { "Name": "WHITFIELD COUNTY JAIL", "Address": "805 PROFESSIONAL BLVD", "City": "DALTON", "State": "GA", "Zip": 30720, "AOR": "ATL", "Type": "IGSA", "MF": "Female\/Male", "ADP_2020": "2", "OU72": "Under 72", "Inspect_Standard": "NDS", "Inspect_Date": "10\/16\/18", "Med_Person": "N\/A", "ICE_Status": "ICE Non-Dedicated Facility", "Latitude": 34.73464003, "Longitude": -85.00296896, "ADP": 2 }, "geometry": { "type": "Point", "coordinates": [ -85.00297, 34.73464 ] } },
{ "type": "Feature", "properties": { "Name": "WILLACY CO  REGIONAL DETENTION FACILITY", "Address": "1601 BUFFALO DRIVE", "City": "RAYMONDVILLE", "State": "TX", "Zip": 78580, "AOR": "SNA", "Type": "USMS IGA", "MF": "Female\/Male", "ADP_2020": "0", "OU72": "Over 72", "Inspect_Standard": "NDS", "Inspect_Date": "9\/12\/19", "Med_Person": "N\/A", "ICE_Status": "ICE Non-Dedicated Facility", "Latitude": 26.48680454, "Longitude": -97.73827443, "ADP": 0 }, "geometry": { "type": "Point", "coordinates": [ -97.73827, 26.4868 ] } },
{ "type": "Feature", "properties": { "Name": "WINN CORRECTIONAL CENTER", "Address": "560 GUM SPRING ROAD", "City": "WINNFIELD", "State": "LA", "Zip": 71483, "AOR": "NOL", "Type": "IGSA", "MF": "Male", "ADP_2020": "1,297", "OU72": "Over 72", "Inspect_Standard": "PBNDS 2011", "Inspect_Date": "10\/10\/19", "Med_Person": "N\/A", "ICE_Status": "ICE Non-Dedicated Facility", "Latitude": 31.89395859, "Longitude": -92.66150435, "ADP": 1297 }, "geometry": { "type": "Point", "coordinates": [ -92.6615, 31.89396 ] } },
{ "type": "Feature", "properties": { "Name": "WORCESTER COUNTY JAIL", "Address": "5022 JOYNER ROAD", "City": "SNOW HILL", "State": "MD", "Zip": 21863, "AOR": "BAL", "Type": "IGSA", "MF": "Female\/Male", "ADP_2020": "132", "OU72": "Over 72", "Inspect_Standard": "NDS", "Inspect_Date": "8\/15\/19", "Med_Person": "N\/A", "ICE_Status": "ICE Non-Dedicated Facility", "Latitude": 38.19239735, "Longitude": -75.39843446, "ADP": 132 }, "geometry": { "type": "Point", "coordinates": [ -75.39843, 38.1924 ] } },
{ "type": "Feature", "properties": { "Name": "WYATT DETENTION CENTER", "Address": "950 HIGH STREET", "City": "CENTRAL FALLS", "State": "RI", "Zip": 2863, "AOR": "BOS", "Type": "USMS IGA", "MF": "Male", "ADP_2020": "99", "OU72": "Over 72", "Inspect_Standard": "NDS", "Inspect_Date": "4\/11\/19", "Med_Person": "N\/A", "ICE_Status": "ICE Non-Dedicated Facility", "Latitude": 41.88991006, "Longitude": -71.3934824, "ADP": 99 }, "geometry": { "type": "Point", "coordinates": [ -71.39348, 41.88991 ] } },
{ "type": "Feature", "properties": { "Name": "YAKIMA COUNTY DEPARTMENT OF CORRECTIONS", "Address": "111 NORTH FRONT STREET", "City": "YAKIMA", "State": "WA", "Zip": 98901, "AOR": "SEA", "Type": "USMS IGA", "MF": "Female\/Male", "ADP_2020": "1", "OU72": "Under 72", "Inspect_Standard": "NDS", "Inspect_Date": "10\/2\/17", "Med_Person": "N\/A", "ICE_Status": "ICE Non-Dedicated Facility", "Latitude": 46.69318373, "Longitude": -120.415293, "ADP": 1 }, "geometry": { "type": "Point", "coordinates": [ -120.41529, 46.69318 ] } },
{ "type": "Feature", "properties": { "Name": "YANKTON COUNTY JAIL", "Address": "410 WALNUT STREET", "City": "YANKTON", "State": "SD", "Zip": 57078, "AOR": "SPM", "Type": "USMS IGA", "MF": "Female\/Male", "ADP_2020": "2", "OU72": "Under 72", "Inspect_Standard": "NDS", "Inspect_Date": "9\/24\/18", "Med_Person": "N\/A", "ICE_Status": "ICE Non-Dedicated Facility", "Latitude": 42.91597912, "Longitude": -97.44368164, "ADP": 2 }, "geometry": { "type": "Point", "coordinates": [ -97.44368, 42.91598 ] } },
{ "type": "Feature", "properties": { "Name": "YORK COUNTY DETENTION CENTER", "Address": "1675-3A YORK HWY", "City": "YORK", "State": "SC", "Zip": 29745, "AOR": "ATL", "Type": "USMS IGA", "MF": "Female\/Male", "ADP_2020": "0", "OU72": "Under 72", "Inspect_Standard": "NDS", "Inspect_Date": "8\/11\/16", "Med_Person": "N\/A", "ICE_Status": "ICE Non-Dedicated Facility", "Latitude": 34.99485398, "Longitude": -81.21599995, "ADP": 0 }, "geometry": { "type": "Point", "coordinates": [ -81.216, 34.99485 ] } },
{ "type": "Feature", "properties": { "Name": "YORK COUNTY PRISON", "Address": "3400 CONCORD ROAD", "City": "YORK", "State": "PA", "Zip": 17402, "AOR": "PHI", "Type": "IGSA", "MF": "Female\/Male", "ADP_2020": "490", "OU72": "Over 72", "Inspect_Standard": "PBNDS 2008", "Inspect_Date": "10\/18\/19", "Med_Person": "N\/A", "ICE_Status": "ICE Non-Dedicated Facility", "Latitude": 39.95900117, "Longitude": -76.65916786, "ADP": 490 }, "geometry": { "type": "Point", "coordinates": [ -76.65917, 39.959 ] } },
{ "type": "Feature", "properties": { "Name": "YUBA COUNTY JAIL", "Address": "215 5TH STREET", "City": "MARYSVILLE", "State": "CA", "Zip": 95901, "AOR": "SFR", "Type": "IGSA", "MF": "Female\/Male", "ADP_2020": "177", "OU72": "Over 72", "Inspect_Standard": "NDS", "Inspect_Date": "11\/15\/19", "Med_Person": "N\/A", "ICE_Status": "ICE Non-Dedicated Facility", "Latitude": 39.22180231, "Longitude": -121.4915787, "ADP": 177 }, "geometry": { "type": "Point", "coordinates": [ -121.49158, 39.2218 ] } }
]
}
