Name,Address,City,State,Zip,AOR,Type,MF,ADP_2020,OU72,Inspect_Standard,Inspect_Date,Med_Person,ICE_Status,Latitude,Longitude
ADELANTO ICE PROCESSING CENTER,10250 RANCHO ROAD,ADELANTO,CA,92301,LOS,DIGSA,Female/Male,"1,600",Over 72,PBNDS 2011,11/21/19,75.95,ICE Dedicated Facility,34.6446103,-117.5408134
ANNEX - FOLKSTON IPC,3424 HIGHWAY 252 EAST,FOLKSTON,GA,31537,ATL,DIGSA,Male,242,Over 72,PBNDS 2011,6/6/19,26,ICE Dedicated Facility,30.89318874,-82.00976099
BERKS COUNTY FAMILY SHELTER,1040 BERKS ROAD,LEESPORT,PA,19533,PHI,FAMILY,Female/Male,56,Over 72,JFRMU Family,12/19/19,10,ICE Dedicated Facility,40.42410238,-75.98741065
BROWARD TRANSITIONAL CENTER,3900 NORTH POWERLINE ROAD,POMPANO BEACH,FL,33073,MIA,CDF,Female/Male,519,Over 72,PBNDS 2011,10/31/19,21,ICE Dedicated Facility,26.29850049,-80.18280261
BUFFALO (BATAVIA) SERVICE PROCESSING CENTER,4250 FEDERAL DRIVE,BATAVIA,NY,14020,BUF,SPC,Female/Male,434,Over 72,PBNDS 2011,4/4/19,24,ICE Dedicated Facility,42.99618551,-78.21264758
CAROLINE DETENTION FACILITY,11093 S.W. LEWIS MEMORIAL DRIVE,BOWLING GREEN,VA,22427,WAS,DIGSA,Female/Male,268,Over 72,PBNDS 2011,5/2/19,13,ICE Dedicated Facility,38.09226753,-77.27067958
DENVER CONTRACT DETENTION FACILITY,3130 N. OAKLAND ST.,AURORA,CO,80010,DEN,CDF,Female/Male,590,Over 72,PBNDS 2011,11/27/19,25,ICE Dedicated Facility,39.73889536,-104.8623698
DENVER CONTRACT DETENTION FACILITY (CDF) II,11901 E. 30th AVE,AURORA,CO,80010,DEN,CDF,Female/Male,203,Over 72,PBNDS 2011,11/27/19,N/A,ICE Dedicated Facility,39.73889536,-104.8623698
EL PASO SERVICE PROCESSING CENTER,8915 MONTANA AVE.,EL PASO,TX,79925,ELP,SPC,Female/Male,757,Over 72,PBNDS 2011,12/12/19,26,ICE Dedicated Facility,31.79758521,-106.3635301
ELIZABETH CONTRACT DETENTION FACILITY,625 EVANS STREET,ELIZABETH,NJ,7201,NEW,CDF,Female/Male,233,Over 72,PBNDS 2011,10/3/19,15,ICE Dedicated Facility,40.67185372,-74.17737862
ELOY FEDERAL CONTRACT FACILITY,1705 EAST HANNA RD.,ELOY,AZ,85131,PHO,DIGSA,Female/Male,"1,207",Over 72,PBNDS 2011,2/6/20,44,ICE Dedicated Facility,32.6739149,-111.5501339
FLORENCE SERVICE PROCESSING CENTER,3250 NORTH PINAL PARKWAY,FLORENCE,AZ,85132,PHO,SPC,Male,367,Over 72,PBNDS 2011,4/11/19,25,ICE Dedicated Facility,32.93337199,-111.204523
HOUSTON CONTRACT DETENTION FACILITY,15850 EXPORT PLAZA DRIVE,HOUSTON,TX,77032,HOU,CDF,Female/Male,761,Over 72,PBNDS 2011,1/9/20,27,ICE Dedicated Facility,29.96494395,-95.34158463
IMMIGRATION CENTERS OF AMERICA FARMVILLE,508 WATERWORKS ROAD,FARMVILLE,VA,23901,WAS,DIGSA,Male,607,Over 72,PBNDS 2011,2/28/19,31,ICE Dedicated Facility,37.31612237,-78.41613419
IMPERIAL REGIONAL DETENTION FACILITY,1572 GATEWAY,CALEXICO,CA,92231,SND,DIGSA,Female/Male,636,Over 72,PBNDS 2011,1/16/20,29,ICE Dedicated Facility,32.6875226,-115.5409972
KARNES COUNTY CIVIL DETENTION CENTER,FM 1144 AT US HIGHWAY 181,KARNES CITY,TX,78118,SNA,FAMILY,Female/Male,0,Over 72,PBNDS 2011,6/26/14,N/A,ICE Dedicated Facility,28.88643915,-97.95035581
KARNES COUNTY RESIDENTIAL CENTER,FM 1144 AT US HIGHWAY 181,KARNES CITY,TX,78118,SNA,FAMILY,Male,198,Over 72,JFRMU Family,1/23/20,62,ICE Dedicated Facility,28.88643915,-97.95035581
KROME NORTH SERVICE PROCESSING CENTER,18201 SOUTHWEST 12TH STREET,MIAMI,FL,33194,MIA,SPC,Male,606,Over 72,PBNDS 2011,2/13/20,44,ICE Dedicated Facility,25.72009597,-80.61204278
LAREDO PROCESSING CENTER,4702 EAST SAUNDERS STREET,LAREDO,TX,78041,SNA,DIGSA,Female/Male,238,Over 72,NDS,6/4/19,17,ICE Dedicated Facility,27.55416248,-99.46338735
LASALLE ICE PROCESSING CENTER (JENA),830 PINEHILL ROAD,JENA,LA,71342,NOL,DIGSA,Female/Male,"1,226",Over 72,PBNDS 2011,9/26/19,37,ICE Dedicated Facility,31.60483977,-92.1380392
MAIN - FOLKSTON IPC (D RAY JAMES),3026 HIGHWAY 252 EAST,FOLKSTON,GA,31537,ATL,DIGSA,Male,536,Over 72,PBNDS 2011,6/6/19,26,ICE Dedicated Facility,30.89318874,-82.00976099
MESA VERDE ICE PROCESSING CENTER,425 GOLDEN STATE AVE,BAKERSFIELD,CA,93301,SFR,CDF,Female/Male,345,Over 72,PBNDS 2011,6/27/19,27,ICE Dedicated Facility,35.38449497,-119.0208242
MONTGOMERY ICE PROCESSING CENTER,806 HILBIG RD,CONROE,TX,77301,HOU,CDF,Female/Male,871,Over 72,PBNDS 2011,12/19/19,40,ICE Dedicated Facility,30.30796398,-95.4342992
OTAY MESA DETENTION CENTER (SAN DIEGO CDF),7488 CALZADA DE LA FUENTE,SAN DIEGO,CA,92154,SND,USMS CDF,Female/Male,"1,028",Over 72,PBNDS 2011,1/24/20,47,ICE Dedicated Facility,32.56758374,-117.0029983
OTERO COUNTY PROCESSING CENTER,26 MCGREGOR RANGE ROAD,CHAPARRAL,NM,88081,ELP,DIGSA,Male,911,Over 72,PBNDS 2011,1/30/20,35,ICE Dedicated Facility,32.22387951,-106.2630949
PINE PRAIRIE ICE PROCESSING CENTER,1133 HAMPTON DUPRE ROAD,PINE PRAIRIE,LA,70576,NOL,DIGSA,Male,687,Over 72,PBNDS 2011,4/25/19,24,ICE Dedicated Facility,30.78096799,-92.41825328
PORT ISABEL,27991 BUENA VISTA BOULEVARD,LOS FRESNOS,TX,78566,SNA,SPC,Female/Male,936,Over 72,PBNDS 2011,1/30/20,45,ICE Dedicated Facility,26.14855482,-97.37068377
PRAIRIELAND DETENTION FACILITY,1209 SUNFLOWER LN,ALVARADO,TX,76009,DAL,DIGSA,Female/Male,617,Over 72,PBNDS 2011,2/13/20,22,ICE Dedicated Facility,32.41577595,-97.2017056
RIO GRANDE DETENTION CENTER,1001 SAN RIO BOULEVARD,LAREDO,TX,78046,SNA,USMS CDF,Male,413,Over 72,PBNDS 2008,3/14/19,30.75,ICE Dedicated Facility,27.37489259,-99.34945369
ROBERT A. DEYTON DETENTION FACILITY,11866 HASTINGS BRIDGE RD,LOVEJOY,GA,30250,ATL,USMS CDF,Female/Male,25,Over 72,NDS,12/5/19,26,ICE Dedicated Facility,33.43653206,-84.31420608
SOUTH TEXAS FAMILY RESIDENTIAL CENTER,1925 WEST HIGHWAY 85,DILLEY,TX,78017,SNA,FAMILY,Female/Male,"1,314",Over 72,JFRMU Family,1/9/20,81,ICE Dedicated Facility,28.706919,-99.1939148
SOUTH TEXAS ICE PROCESSING CENTER,566 VETERANS DRIVE,PEARSALL,TX,78061,SNA,CDF,Female/Male,"1,445",Over 72,PBNDS 2011,2/28/19,48,ICE Dedicated Facility,28.90172103,-99.14691453
STEWART DETENTION CENTER,146 CCA ROAD,LUMPKIN,GA,31815,ATL,DIGSA,Male,"1,530",Over 72,PBNDS 2011,5/9/19,54,ICE Dedicated Facility,32.03552643,-84.83842758
T DON HUTTO RESIDENTIAL CENTER,1001 WELCH STREET,TAYLOR,TX,76574,SNA,FAMILY,Female,485,Over 72,JFRMU Family,8/29/19,21,ICE Dedicated Facility,30.58422872,-97.38740404
TACOMA ICE PROCESSING CENTER (NORTHWEST DET CTR),1623 E. J STREET,TACOMA,WA,98421,SEA,CDF,Female/Male,933,Over 72,PBNDS 2011,5/16/19,36,ICE Dedicated Facility,47.25988092,-122.4007541
WEBB COUNTY DETENTION CENTER (CCA),9998 SOUTH HIGHWAY 83,LAREDO,TX,78046,SNA,DIGSA,Female/Male,92,Over 72,PBNDS 2011,2/6/20,21,ICE Dedicated Facility,27.37489259,-99.34945369
ABRAXAS ACADEMY DETENTION CENTER,1000 ACADEMY DRIVE,MORGANTOWN,PA,19543,PHI,JUVENILE,Female/Male,0,Over 72,JFRMU Juvenile,7/18/19,N/A,ICE Non-Dedicated Facility,40.17115196,-75.89240561
ADAMS COUNTY DET CENTER,20 HOBO FORK RD.,NATCHEZ,MS,39120,NOL,IGSA,Female/Male,"1,042",Over 72,PBNDS 2011,11/21/19,N/A,ICE Non-Dedicated Facility,31.51025831,-91.35403709
ALBANY COUNTY JAIL,840 ALBANY SHAKER ROAD,ALBANY,NY,12211,BUF,USMS IGA,Female/Male,0,Over 72,NDS,9/27/18,N/A,ICE Non-Dedicated Facility,42.70591163,-73.76421897
ALEXANDRIA CITY JAIL,2003 MILL ROAD,ALEXANDRIA,VA,22314,WAS,USMS IGA,Female/Male,0,Under 72,NDS,9/27/17,N/A,ICE Non-Dedicated Facility,38.8070591,-77.05692349
ALLEN PARISH PUBLIC SAFETY COMPLEX,7340 HIGHWAY 26 WEST,OBERLIN,LA,70655,NOL,IGSA,Male,109,Over 72,PBNDS 2011,12/5/19,N/A,ICE Non-Dedicated Facility,30.66447154,-92.72390248
ANCHORAGE CORRECTIONAL COMPLEX,1400 E. 4TH AVE,ANCHORAGE,AK,99501,SEA,USMS IGA,Female/Male,0,Over 72,NDS,9/8/17,N/A,ICE Non-Dedicated Facility,61.22027207,-149.8566028
BAKER COUNTY SHERIFF'S OFFICE,1 SHERIFF OFFICE DRIVE,MACCLENNY,FL,32063,MIA,IGSA,Female/Male,254,Over 72,NDS,5/31/19,N/A,ICE Non-Dedicated Facility,30.24671284,-82.11203848
BALDWIN COUNTY CORRECTIONAL CENTER,200 HAND AVE.,BAY MINETTE,AL,36507,NOL,IGSA,Female/Male,5,Under 72,NDS,9/11/18,N/A,ICE Non-Dedicated Facility,30.86318768,-87.73890548
BEAVER COUNTY JAIL,6000 WOODLAWN BOULEVARD,ALIQUIPPA,PA,15001,PHI,USMS IGA,Female/Male,2,Over 72,NDS,9/18/17,N/A,ICE Non-Dedicated Facility,40.59210899,-80.31974662
BEDFORD MUNICIPAL DETENTION CENTER,2121 L DON DODSON DRIVE,BEDFORD,TX,76021,DAL,IGSA,Female/Male,8,Under 72,NDS,10/11/17,N/A,ICE Non-Dedicated Facility,32.8522843,-97.13125024
BERGEN COUNTY JAIL,160 SOUTH RIVER STREET,HACKENSACK,NJ,7601,NYC,USMS IGA,Female/Male,209,Over 72,NDS,2/28/19,N/A,ICE Non-Dedicated Facility,40.8890158,-74.04608769
BOONE COUNTY JAIL,3020 CONRAD LANE,BURLINGTON,KY,41005,CHI,USMS IGA,Female/Male,121,Over 72,NDS,3/7/19,N/A,ICE Non-Dedicated Facility,39.00796226,-84.7675019
BREMER COUNTY JAIL,111 4TH STREET NE,WAVERLY,IA,50677,SPM,USMS IGA,Female/Male,1,Under 72,NDS,9/21/17,N/A,ICE Non-Dedicated Facility,42.7626472,-92.43271311
BRISTOL COUNTY DETENTION CENTER,400 FAUNCE CORNER ROAD,NORTH DARTMOUTH,MA,2747,BOS,IGSA,Female/Male,167,Over 72,PBNDS 2008,5/16/19,N/A,ICE Non-Dedicated Facility,41.66782324,-71.01627693
BURNET COUNTY JAIL,JAIL ADMINISTRATOR,BURNET,TX,78611,SNA,USMS IGA,Male,3,Under 72,NDS,10/1/18,N/A,ICE Non-Dedicated Facility,30.79176508,-98.26015671
BUTLER COUNTY JAIL,705 HANOVER STREET,HAMILTON,OH,45011,DET,IGSA,Female/Male,114,Over 72,NDS,5/2/19,N/A,ICE Non-Dedicated Facility,39.42963278,-84.50250845
BUTLER COUNTY JAIL,701 SE STONE ROAD,EL DORADO,KS,67042,CHI,USMS IGA,Female/Male,1,Over 72,NDS,9/14/18,N/A,ICE Non-Dedicated Facility,37.84865449,-96.79829747
CABARRUS COUNTY JAIL,30 CORBAN AVENUE SE,CONCORD,NC,28025,ATL,IGSA,Female/Male,0,Under 72,NDS,10/15/18,N/A,ICE Non-Dedicated Facility,35.38040527,-80.52791099
CACHE COUNTY JAIL,50 WEST 200 NORTH,LOGAN,UT,84321,SLC,USMS IGA,Female/Male,21,Over 72,NDS,11/8/18,N/A,ICE Non-Dedicated Facility,41.80002455,-111.6854587
CALDWELL COUNTY DETENTION CENTER,280 WEST MAIN STREET,KINGSTON,MO,64650,CHI,IGSA,Female/Male,14,Over 72,NDS,5/24/18,N/A,ICE Non-Dedicated Facility,39.63486523,-94.05978602
CALHOUN COUNTY CORRECTIONAL CENTER,185 EAST MICHIGAN AVENUE,BATTLE CREEK,MI,49014,DET,IGSA,Female/Male,135,Over 72,NDS,3/7/19,N/A,ICE Non-Dedicated Facility,42.31103625,-85.10612029
CAMBRIA COUNTY JAIL,425 MANOR DRIVE,EBENSBURG,PA,15931,PHI,USMS IGA,Male,39,Over 72,NDS,11/7/19,N/A,ICE Non-Dedicated Facility,40.51737435,-78.75826208
CARVER COUNTY JAIL,600 EAST FOURTH ST.,CHASKA,MN,55318,SPM,IGSA,Female/Male,15,Over 72,NDS,12/5/19,N/A,ICE Non-Dedicated Facility,44.81113595,-93.63666741
CARVER COUNTY JUVENILE DETENTION CENTER,600 EAST FOURTH ST.,CHASKA,MN,55318,SPM,JUVENILE,Female/Male,0,Under 72,JFRMU Juvenile,8/30/19,N/A,ICE Non-Dedicated Facility,44.81113595,-93.63666741
CASCADE COUNTY JAIL (MONTANA),3800 ULM NORTH FRONTAGE ROAD,GREAT FALLS,MT,59404,SLC,USMS IGA,Female/Male,2,Over 72,NDS,9/17/18,N/A,ICE Non-Dedicated Facility,47.63052847,-111.3470878
CASS COUNTY JAIL,336 MAIN STREET,PLATTSMOUTH,NE,68048,SPM,USMS IGA,Female/Male,18,Over 72,NDS,9/19/19,N/A,ICE Non-Dedicated Facility,40.9814181,-95.93439183
CATAHOULA CORRECTIONAL CENTER,499 OLD COLUMBIA ROAD,HARRISONBURG,LA,71430,NOL,IGSA,Male,505,Over 72,PBNDS 2011,8/22/19,N/A,ICE Non-Dedicated Facility,31.04033239,-92.50056824
"CCA, FLORENCE CORRECTIONAL CENTER",1100 BOWLING ROAD,FLORENCE,AZ,85132,PHO,USMS IGA,Male,167,Over 72,PBNDS 2008,8/29/19,N/A,ICE Non-Dedicated Facility,32.93337199,-111.204523
CENTRAL TEXAS DETENTION FACILITY,218 S. LAREDO ST,SAN ANTONIO,TX,78207,SNA,USMS IGA,Female/Male,1,Under 72,NDS,10/1/18,N/A,ICE Non-Dedicated Facility,29.42218505,-98.52544816
CHARLESTON COUNTY DETENTION CENTER,3841 LEEDS AVENUE,NORTH CHARLESTON,SC,29405,ATL,USMS IGA,Male,14,Over 72,NDS,12/19/19,N/A,ICE Non-Dedicated Facility,32.85396752,-79.98182696
CHASE COUNTY DETENTION FACILITY,301 SOUTH WALNUT STREET,COTTONWOOD FALLS,KS,66845,CHI,IGSA,Female/Male,69,Over 72,NDS,7/11/19,N/A,ICE Non-Dedicated Facility,38.29566367,-96.50626903
CHAUTAUQUA COUNTY JAIL,15 E. CHAUTAUQUA STREET,MAYVILLE,NY,14757,BUF,IGSA,Female/Male,2,Over 72,NDS,9/25/18,N/A,ICE Non-Dedicated Facility,42.23654163,-79.50390467
CHIPPEWA COUNTY SSM,325 COURT STREET,SAULT SAINTE MARIE,MI,49783,DET,IGSA,Female/Male,29,Over 72,NDS,3/28/19,N/A,ICE Non-Dedicated Facility,46.41508896,-84.28542816
CHRISTIAN COUNTY JAIL,110 WEST ELM,OZARK,MO,65721,CHI,IGSA,Male,13,Over 72,NDS,5/24/18,N/A,ICE Non-Dedicated Facility,36.98012404,-93.21016544
CIBOLA COUNTY CORRECTIONAL CENTER,2000 CIBOLA LOOP,MILAN,NM,87021,ELP,IGSA,Male,106,Over 72,PBNDS 2011,5/9/19,N/A,ICE Non-Dedicated Facility,35.19128572,-107.8839576
CLAY COUNTY JAIL,611 EAST JACKSON STREET,BRAZIL,IN,47834,CHI,USMS IGA,Male,52,Over 72,PBNDS 2008,5/31/19,N/A,ICE Non-Dedicated Facility,39.52575097,-87.12135619
CLINTON COUNTY CORRECTIONAL FACILITY,419 SHOEMAKER ROAD,LOCK HAVEN,PA,17745,PHI,USMS IGA,Male,66,Over 72,NDS,9/26/19,N/A,ICE Non-Dedicated Facility,41.27051282,-77.47607987
CLINTON COUNTY JAIL,25 MCCARTHY DRIVE,PLATTSBURGH,NY,12901,BUF,USMS IGA,Female/Male,5,Over 72,NDS,10/25/18,N/A,ICE Non-Dedicated Facility,44.70385454,-73.4738639
COASTAL BEND DETENTION FACILITY,4909 FM (FARM TO MARKET) 2826,ROBSTOWN,TX,78380,HOU,USMS IGA,Male,27,Over 72,PBNDS 2008,1/9/20,N/A,ICE Non-Dedicated Facility,27.79176255,-97.74777879
COBB COUNTY JAIL,1825 COUNTY SERVICES PARKWAY,MARIETTA,GA,30060,ATL,IGSA,Female/Male,3,Under 72,NDS,10/16/18,N/A,ICE Non-Dedicated Facility,33.92023331,-84.54209557
COLLIER COUNTY NAPLES JAIL CENTER,3301 TAMIAMI TRAIL EAST,NAPLES,FL,34112,MIA,IGSA,Female/Male,8,Over 72,NDS,2/7/19,N/A,ICE Non-Dedicated Facility,26.11800857,-81.74162943
COMPASS HOUSE SHELTER,370 LINWOOD AVE,BUFFALO,NY,14209,BUF,JUVENILE,Female/Male,0,Under 72,N/A,N/A,N/A,ICE Non-Dedicated Facility,42.91394411,-78.86602037
COWLITZ COUNTY JUVENILE,1725 1ST AVE.,LONGVIEW,WA,98632,SEA,JUVENILE,Female/Male,3,Over 72,JFRMU Juvenile,8/1/19,N/A,ICE Non-Dedicated Facility,46.21674958,-123.0684057
CUMBERLAND COUNTY JAIL,50 COUNTY WAY,PORTLAND,ME,4102,BOS,USMS IGA,Female/Male,1,Over 72,NDS,9/5/18,N/A,ICE Non-Dedicated Facility,43.65878995,-70.30617139
DAKOTA COUNTY JAIL,1601 BROADWAY,DAKOTA CITY,NE,68731,SPM,USMS IGA,Female/Male,2,Under 72,NDS,9/24/18,N/A,ICE Non-Dedicated Facility,42.40977571,-96.48112345
DALE G. HAILE DETENTION CENTER,1115 ALBANY,CALDWELL,ID,83605,SLC,IGSA,Female/Male,1,Over 72,NDS,9/5/17,N/A,ICE Non-Dedicated Facility,43.66240866,-116.6564643
DALLAS COUNTY JAIL - LEW STERRETT JUSTICE CENTER,111 WEST COMMERCE STREET,DALLAS,TX,75202,DAL,USMS IGA,Female/Male,7,Under 72,NDS,10/20/17,N/A,ICE Non-Dedicated Facility,32.77929001,-96.80476588
DAVIDSON COUNTY SHERIFF,448 2ND AVENUE NORTH,NASHVILLE,TN,37210,NOL,IGSA,Female/Male,0,Over 72,NDS,9/24/18,N/A,ICE Non-Dedicated Facility,36.14433589,-86.73362876
DEARBORN POLICE DEPARTMENT,16099 MICHIGAN AVE,DEARBORN,MI,48126,DET,IGSA,Female/Male,0,Under 72,NDS,8/17/18,N/A,ICE Non-Dedicated Facility,42.32553255,-83.18343456
DEKALB COUNTY DETENTION CENTER,2801 JORDAN ROAD,FORT PAYNE,AL,35968,NOL,USMS IGA,Female/Male,11,Over 72,NDS,1/30/20,N/A,ICE Non-Dedicated Facility,34.48976137,-85.76571671
DELAWARE CO JAIL (GEORGE W. HILL),500 CHAYNEY ROAD,THORNTON,PA,19373,PHI,USMS IGA,Female/Male,3,Under 72,NDS,8/10/18,N/A,ICE Non-Dedicated Facility,39.90247691,-75.53390434
DODGE COUNTY JAIL,215 WEST CENTRAL STREET,JUNEAU,WI,53039,CHI,USMS IGA,Female/Male,113,Over 72,NDS,4/18/19,N/A,ICE Non-Dedicated Facility,43.36999429,-88.71292226
DOUGLAS COUNTY DEPARTMENT OF CORRECTIONS,710 SOUTH 17TH ST,OMAHA,NE,68102,SPM,IGSA,Female/Male,12,Over 72,PBNDS 2008,10/24/19,N/A,ICE Non-Dedicated Facility,41.26199946,-95.93337722
EAST HIDALGO DETENTION CENTER,1330 HIGHWAY 107,LA VILLA,TX,78562,SNA,USMS IGA,Female/Male,2,Over 72,NDS,9/6/19,N/A,ICE Non-Dedicated Facility,26.29354248,-97.89878242
EDEN DETENTION CENTER,702 E BROADWAY ST,EDEN,TX,76837,DAL,USMS IGA,Male,395,,NDS,12/19/19,N/A,ICE Non-Dedicated Facility,31.22070502,-99.89592779
EL VALLE DETENTION FACILITY,1800 INDUSTRIAL DRIVE,RAYMONDVILLE,TX,78580,SNA,IGSA,Female/Male,789,Over 72,PBNDS 2011,10/24/19,N/A,ICE Non-Dedicated Facility,26.48680454,-97.73827443
ELMORE COUNTY JAIL,2255 E. 8TH NORTH,MOUNTAIN HOME,ID,83647,SLC,USMS IGA,Female/Male,3,Over 72,NDS,9/17/18,N/A,ICE Non-Dedicated Facility,43.43420961,-115.5026147
ERIE COUNTY JAIL,1618 ASH STREET,ERIE,PA,16503,PHI,USMS IGA,Female/Male,0,Over 72,NDS,9/20/18,N/A,ICE Non-Dedicated Facility,42.12703593,-80.0610644
ESSEX COUNTY CORRECTIONAL FACILITY,354 DOREMUS AVENUE,NEWARK,NJ,7105,NEW,IGSA,Male,616,Over 72,PBNDS 2011,9/26/19,N/A,ICE Non-Dedicated Facility,40.72291814,-74.13883899
ETOWAH COUNTY JAIL (ALABAMA),827 FORREST AVENUE,GADSDEN,AL,35901,NOL,USMS IGA,Male,234,Over 72,NDS,7/18/19,N/A,ICE Non-Dedicated Facility,34.04795327,-85.92462431
EULESS CITY JAIL,1102 W. EULESS BLVD.,EULESS,TX,76040,DAL,IGSA,Female/Male,7,Under 72,NDS,10/11/17,N/A,ICE Non-Dedicated Facility,32.81468102,-97.09674719
FAYETTE COUNTY DETENTION CENTER,600 OLD FRANKFORD CR,LEXINGTON,KY,40510,CHI,USMS IGA,Female/Male,2,Under 72,NDS,8/14/18,N/A,ICE Non-Dedicated Facility,38.06895763,-84.6014669
FORSYTH COUNTY JAIL,201 NORTH CHURCH STREET,WINSTON-SALEM,NC,27101,ATL,USMS IGA,Female/Male,0,Under 72,NDS,9/15/17,N/A,ICE Non-Dedicated Facility,36.111728,-80.19861425
FRANKLIN COUNTY HOUSE OF CORRECTION,160 ELM STREET,GREENFIELD,MA,1301,BOS,USMS IGA,Male,22,Over 72,NDS,5/2/19,N/A,ICE Non-Dedicated Facility,42.62413299,-72.60390529
FREDERICK COUNTY DETENTION CENTER,7300 MARCIE'S CHOICE LANE,FREDERICK,MD,21704,BAL,IGSA,Male,21,Over 72,NDS,7/11/19,N/A,ICE Non-Dedicated Facility,39.35410288,-77.3750002
FREEBORN COUNTY ADULT DETENTION CENTER,411 SOUTH BROADWAY AVENUE,ALBERT LEA,MN,56007,SPM,IGSA,Male,50,Over 72,NDS,4/18/19,N/A,ICE Non-Dedicated Facility,43.66037318,-93.3252699
GARVIN COUNTY DETENTION CENTER,201 WEST GRANT AVENUE,PAULS VALLEY,OK,73075,DAL,IGSA,Female/Male,1,Under 72,NDS,10/11/17,N/A,ICE Non-Dedicated Facility,34.75158689,-97.23350556
GASTON COUNTY JAIL,425 NORTH MARIETTA STREET,GASTONIA,NC,28052,ATL,IGSA,Female/Male,0,Under 72,NDS,10/15/18,N/A,ICE Non-Dedicated Facility,35.22376799,-81.23374129
GEAUGA COUNTY JAIL,12450 MERRITT DR,CHARDON,OH,44024,DET,USMS IGA,Female/Male,48,Over 72,NDS,10/10/19,N/A,ICE Non-Dedicated Facility,41.57664437,-81.1926072
GLADES COUNTY DETENTION CENTER,1297 EAST SR 78,MOORE HAVEN,FL,33471,MIA,IGSA,Female/Male,426,Over 72,NDS,3/14/19,N/A,ICE Non-Dedicated Facility,26.88401033,-81.19266632
GLENDALE POLICE DEPARTMENT,131 NORTH ISABEL STREET,GLENDALE,CA,91206,LOS,IGSA,Female/Male,0,Under 72,NDS,9/20/18,N/A,ICE Non-Dedicated Facility,34.16068057,-118.2134391
GRAND FORKS COUNTY,P.O. BOX 726,GRAND FORKS,ND,58206,SPM,JUVENILE,Female/Male,0,Under 72,JFRMU Juvenile,10/31/19,N/A,ICE Non-Dedicated Facility,47.899294,-97.067616
GRAND FORKS COUNTY CORRECTIONAL FACILITY,1701 NORTH WASHINGTON ST,GRAND FORKS,ND,58206,SPM,IGSA,Female/Male,6,Over 72,NDS,5/17/18,N/A,ICE Non-Dedicated Facility,47.899294,-97.067616
GRAYSON COUNTY JAIL,320 SHAW STATION ROAD,LEITCHFIELD,KY,42754,CHI,USMS IGA,Female/Male,1,Under 72,NDS,8/14/18,N/A,ICE Non-Dedicated Facility,37.47600057,-86.31462086
HALL COUNTY DEPARTMENT OF CORRECTIONS,110 PUBLIC SAFETY DRIVE,GRAND ISLAND,NE,68801,SPM,IGSA,Female/Male,75,Over 72,NDS,7/11/19,N/A,ICE Non-Dedicated Facility,40.94789122,-98.29167218
HALL COUNTY JAIL,1700 BARBER ROAD,GAINESVILLE,GA,30507,ATL,USMS IGA,Female/Male,0,Under 72,NDS,9/15/17,N/A,ICE Non-Dedicated Facility,34.260526,-83.76694841
HARDIN COUNTY JAIL,1116 14TH AVENUE,ELDORA,IA,50627,SPM,IGSA,Female/Male,59,Over 72,NDS,9/12/19,N/A,ICE Non-Dedicated Facility,42.3505659,-93.09574816
HENDERSON DETENTION CENTER,18 E BASIC ROAD,HENDERSON,NV,89015,SLC,USMS IGA,Female/Male,193,Over 72,NDS,7/18/19,N/A,ICE Non-Dedicated Facility,36.03930082,-114.9280186
HOWARD COUNTY DETENTION CENTER,7301 WATERLOO ROAD,JESSUP,MD,20794,BAL,IGSA,Male,60,Over 72,PBNDS 2011,8/29/19,N/A,ICE Non-Dedicated Facility,39.15014458,-76.78901652
HUDSON COUNTY CORRECTIONAL CENTER,30-35 HACKENSACK AVE.,KEARNY,NJ,7032,NYC,IGSA,Female/Male,290,Over 72,PBNDS 2008,5/9/19,N/A,ICE Non-Dedicated Facility,40.75357309,-74.12036145
IAH SECURE ADULT DETENTION FACILITY (POLK),3400 FM 350 SOUTH,LIVINGSTON,TX,77351,HOU,IGSA,Male,400,Over 72,NDS,1/9/20,N/A,ICE Non-Dedicated Facility,30.71305765,-94.82199164
IRWIN COUNTY DETENTION CENTER,132 COTTON DRIVE,OCILLA,GA,31772,ATL,USMS IGA,Female/Male,784,Over 72,PBNDS 2008,6/13/19,N/A,ICE Non-Dedicated Facility,31.72506577,-83.95683069
JACK HARWELL DETENTION CENTER,3101 MARLIN HWY,WACO,TX,76705,SNA,USMS IGA,Female/Male,0,Over 72,NDS,10/1/18,N/A,ICE Non-Dedicated Facility,31.62654889,-97.09606344
JACKSON PARISH CORRECTIONAL CENTER,327 INDUSTRIAL DRIVE,JONESBORO,LA,71251,NOL,IGSA,Female/Male,780,Over 72,PBNDS 2011,11/7/19,N/A,ICE Non-Dedicated Facility,32.21621854,-92.67173564
JEFFERSON COUNTY JAIL,200 COURTHOUSE WAY,RIGBY,ID,83442,SLC,IGSA,Female/Male,4,Over 72,NDS,9/17/18,N/A,ICE Non-Dedicated Facility,43.6719948,-111.8929381
JOE CORLEY ICE PROCESSING CENTER,500 HILBIG RD.,CONROE,TX,77301,HOU,IGSA,Female/Male,451,Over 72,PBNDS 2011,11/15/19,N/A,ICE Non-Dedicated Facility,30.30796398,-95.4342992
JOHNSON COUNTY CORRECTIONS CENTER,1800 RIDGEMAR DRIVE,CLEBURNE,TX,76031,DAL,IGSA,Male,173,Over 72,PBNDS 2011,8/22/19,N/A,ICE Non-Dedicated Facility,32.34849025,-97.33111799
KANDIYOHI COUNTY JAIL,2201 23RD ST NE,WILLMAR,MN,56201,SPM,IGSA,Female/Male,52,Over 72,NDS,7/11/19,N/A,ICE Non-Dedicated Facility,45.1015637,-95.04192763
KANKAKEE COUNTY JAIL (JEROME COMBS DET CTR),3050 JUSTICE WAY,KANKAKEE,IL,60901,CHI,USMS IGA,Male,128,Over 72,NDS,4/11/19,N/A,ICE Non-Dedicated Facility,41.11083697,-87.89809292
KARNES COUNTY CORRECTIONAL CENTER,810 COMMERCE STREET,KARNES CITY,TX,78118,SNA,USMS IGA,Female/Male,0,Over 72,NDS,3/16/17,N/A,ICE Non-Dedicated Facility,28.88643915,-97.95035581
KAY COUNTY JUSTICE FACILITY,1101 WEST DRY ROAD,NEWKIRK,OK,74647,DAL,IGSA,Female,92,Over 72,PBNDS 2011,10/24/19,N/A,ICE Non-Dedicated Facility,36.91233392,-96.98529556
KENOSHA COUNTY DETENTION CENTER,4777 88TH AVENUE,KENOSHA,WI,53144,CHI,USMS IGA,Female/Male,149,Over 72,NDS,6/6/19,N/A,ICE Non-Dedicated Facility,42.61948233,-87.9231629
KENT COUNTY JAIL,701 BALL AVENUE NORTHEAST,GRAND RAPIDS,MI,49503,DET,IGSA,Female/Male,0,Under 72,NDS,8/16/18,N/A,ICE Non-Dedicated Facility,42.96256353,-85.65925241
LA PALMA CORRECTION CENTER - APSO,5501 NORTH LA PALMA ROAD,ELOY,AZ,85131,PHO,IGSA,Male,493,Over 72,N/A,New Facility,N/A,ICE Non-Dedicated Facility,32.6739149,-111.5501339
LA PALMA CORRECTIONAL CENTER,5501 NORTH LA PALMA ROAD,ELOY,AZ,85131,PHO,IGSA,Male,"1,268",Over 72,PBNDS 2011,6/27/19,N/A,ICE Non-Dedicated Facility,32.6739149,-111.5501339
LA PAZ COUNTY ADULT DETENTION FACILITY,1109 ARIZONA AVE.,PARKER,AZ,85344,PHO,USMS IGA,Female/Male,3,Under 72,NDS,9/27/18,N/A,ICE Non-Dedicated Facility,34.0755235,-114.2219924
LA PLATA COUNTY JAIL,742 TURNER DRIVE,DURANGO,CO,81303,DEN,USMS IGA,Female/Male,0,Under 72,NDS,9/8/17,N/A,ICE Non-Dedicated Facility,37.11562238,-107.8908859
LA SALLE COUNTY REGIONAL DETENTION CENTER,832 EAST TEXAS STATE HIGHWAY 44,ENCINAL,TX,78019,SNA,USMS IGA,Male,2,Over 72,NDS,9/19/19,N/A,ICE Non-Dedicated Facility,28.04206406,-99.39661092
LASALLE CORR CTR OLLA,15976 HWY 165,OLLA,LA,71465,NOL,IGSA,Female/Male,453,,PBNDS 2011,11/15/19,N/A,ICE Non-Dedicated Facility,31.86773824,-92.18815877
LEXINGTON COUNTY JAIL,521 GIBSON ROAD,LEXINGTON,SC,29072,ATL,USMS IGA,Female/Male,2,Under 72,NDS,9/15/17,N/A,ICE Non-Dedicated Facility,34.00042108,-81.27550715
LIMESTONE COUNTY DETENTION CENTER,910 NORTH TYUS STREET,GROESBECK,TX,76642,SNA,USMS IGA,Male,328,Over 72,NDS,10/24/19,N/A,ICE Non-Dedicated Facility,31.50128133,-96.51758302
LINCOLN COUNTY DETENTION CENTER,65 BUSINESS PARK DRIVE,TROY,MO,63379,CHI,IGSA,Female/Male,6,Over 72,NDS,9/19/18,N/A,ICE Non-Dedicated Facility,38.99817469,-90.98880355
LINN COUNTY JAIL,53 3RD AVENUE BRIDGE,CEDAR RAPIDS,IA,52401,SPM,USMS IGA,Female/Male,6,Over 72,NDS,6/20/19,N/A,ICE Non-Dedicated Facility,41.9754361,-91.65854298
LONOKE POLICE DEPARTMENT,203 W. FRONT STREET,LONOKE,AR,72086,NOL,IGSA,Female/Male,2,Under 72,NDS,9/18/18,N/A,ICE Non-Dedicated Facility,34.80893297,-91.90936686
LUBBOCK COUNTY DETENTION CENTER,811 MAIN STREET,LUBBOCK,TX,79401,DAL,USMS IGA,Female/Male,1,Under 72,NDS,10/20/17,N/A,ICE Non-Dedicated Facility,33.58788284,-101.851415
MAINE YOUTH CENTER - LONG CREEK,675 WESTBROOK ST.,SOUTH PORTLAND,ME,4106,BOS,JUVENILE,Female/Male,0,Under 72,JFRMU Juvenile,12/31/19,N/A,ICE Non-Dedicated Facility,43.63152581,-70.28592231
MCHENRY COUNTY CORRECTIONAL FACILITY,2200 NORTH SEMINARY AVENUE,WOODSTOCK,IL,60098,CHI,USMS IGA,Female/Male,251,Over 72,NDS,6/13/19,N/A,ICE Non-Dedicated Facility,42.32529209,-88.4578518
MECKLENBURG COUNTY DETENTION CENTER NORTH,5234 SPECTOR DRIVE,CHARLOTTE,NC,28202,ATL,USMS IGA,Female/Male,0,Under 72,NDS,10/15/18,N/A,ICE Non-Dedicated Facility,35.2277525,-80.84460231
MILLER COUNTY JAIL,2300 EAST STREET,TEXARKANA,AR,71854,NOL,USMS IGA,Female/Male,0,Under 72,NDS,9/11/18,N/A,ICE Non-Dedicated Facility,33.44697601,-93.90149576
MINICASSIA DETENTION CENTER,1415 ALBION AVENUE,BURLEY,ID,83318,SLC,IGSA,Female/Male,4,Over 72,NDS,9/17/18,N/A,ICE Non-Dedicated Facility,42.43682228,-113.8212917
MOFFAT COUNTY JAIL,800 WEST 1ST STREET,CRAIG,CO,81625,DEN,IGSA,Female/Male,0,Under 72,NDS,9/18/18,N/A,ICE Non-Dedicated Facility,40.73379713,-107.6871021
MONROE COUNTY DETENTION CENTER,5501 COLLEGE ROAD,KEY WEST,FL,33040,MIA,IGSA,Male,80,Over 72,PBNDS 2008,8/1/19,N/A,ICE Non-Dedicated Facility,24.5715552,-81.89098681
MONROE COUNTY DETENTION-DORM,7000 EAST DUNBAR ROAD,MONROE,MI,48161,DET,IGSA,Male,74,Over 72,NDS,8/15/19,N/A,ICE Non-Dedicated Facility,41.90803646,-83.47191572
MONTGOMERY CITY JAIL,320 NORTH RIPLEY STREET,MONTGOMERY,AL,36104,NOL,IGSA,Female/Male,3,Over 72,NDS,9/27/18,N/A,ICE Non-Dedicated Facility,32.39969646,-86.32501162
MONTGOMERY COUNTY JAIL,211 EAST THIRD STREET,MONTGOMERY CITY,MO,63361,CHI,IGSA,Female/Male,26,Over 72,NDS,11/7/19,N/A,ICE Non-Dedicated Facility,38.96249417,-91.55447869
MORGAN COUNTY ADULT DETENTION CENTER,211 EAST NEWTON STREET,VERSAILLES,MO,65084,CHI,IGSA,Male,53,Over 72,NDS,2/22/19,N/A,ICE Non-Dedicated Facility,38.43573667,-92.85339432
MORROW COUNTY CORRECTIONAL FACILITY,101 HOME ROAD,MOUNT GILEAD,OH,43338,DET,IGSA,Female/Male,31,Over 72,NDS,3/8/18,N/A,ICE Non-Dedicated Facility,40.56049935,-82.7594643
NATRONA COUNTY JAIL,1100 BRUCE LANE,CASPER,WY,82601,DEN,USMS IGA,Female/Male,1,Under 72,NDS,9/18/18,N/A,ICE Non-Dedicated Facility,43.09718673,-106.3874343
NEVADA SOUTHERN DETENTION CENTER,2190 EAST MESQUITE AVENUE,PAHRUMP,NV,89060,SLC,USMS IGA,Female/Male,189,Over 72,PBNDS 2008,7/25/19,N/A,ICE Non-Dedicated Facility,36.39428564,-116.0634423
NEW HANOVER COUNTY JAIL,3950 JUVENILE RD,CASTLE HAYNE,NC,28429,ATL,IGSA,Female/Male,2,Under 72,NDS,9/15/17,N/A,ICE Non-Dedicated Facility,34.34196367,-77.90116022
NOBLES COUNTY JAIL,1530 AIRPORT ROAD,WORTHINGTON,MN,56187,SPM,IGSA,Female/Male,2,Over 72,NDS,5/24/18,N/A,ICE Non-Dedicated Facility,43.62387477,-95.5828431
NORTHERN OREGON CORRECTIONAL FACILITY,211 WEBBER ROAD,THE DALLES,OR,97058,SEA,IGSA,Male,13,Over 72,NDS,10/31/19,N/A,ICE Non-Dedicated Facility,45.53878287,-121.1532777
NORTHERN OREGON JUVENILE DETENTION,211 WEBBER STREET,THE DALLES,OR,97058,SEA,JUVENILE,Female/Male,1,Over 72,JFRMU Juvenile,7/18/19,N/A,ICE Non-Dedicated Facility,45.53878287,-121.1532777
NORTHERN VIRGINIA JUVENILE DETENTION CENTER,200 SOUTH WHITING STREET,ALEXANDRIA,VA,22304,WAS,JUVENILE,Female/Male,0,Under 72,N/A,N/A,N/A,ICE Non-Dedicated Facility,38.81376701,-77.11401076
NORTHWEST STATE CORRECTIONAL CENTER,3649 LOWER NEWTON ROAD,SWANTON,VT,5488,BOS,USMS IGA,Female/Male,1,Under 72,NDS,9/5/18,N/A,ICE Non-Dedicated Facility,44.92141294,-73.1248964
"NYE COUNTY DETENTION CENTER, SOUTHERN (PAHRUMP)",1520 E. BASIN ROAD,PAHRUMP,NV,89060,SLC,IGSA,Female/Male,77,Over 72,NDS,12/5/19,N/A,ICE Non-Dedicated Facility,36.39428564,-116.0634423
OGLE COUNTY JAIL,103 JEFFERSON STREET,OREGON,IL,61061,CHI,USMS IGA,Female/Male,0,Over 72,N/A,New Facility,N/A,ICE Non-Dedicated Facility,42.00024944,-89.33982649
OKMULGEE COUNTY JAIL,314 W. 7TH STREET,OKMULGEE,OK,74447,DAL,IGSA,Male,222,Over 72,PBNDS 2011,9/19/19,N/A,ICE Non-Dedicated Facility,35.65123096,-96.00320249
OLDHAM COUNTY JAIL,100 W MAIN STREET,LA GRANGE,KY,40031,CHI,IGSA,Female/Male,3,Over 72,NDS,8/16/18,N/A,ICE Non-Dedicated Facility,38.42770234,-85.39478579
ORANGE COUNTY INTAKE RELEASE FACILITY,550 NORTH FLOWER STREET,SANTA ANA,CA,92703,LOS,IGSA,Female/Male,0,Under 72,NDS,9/27/18,N/A,ICE Non-Dedicated Facility,33.74872034,-117.9060796
ORANGE COUNTY JAIL,110 WELLS FARM ROAD,GOSHEN,NY,10924,NYC,IGSA,Female/Male,112,Over 72,NDS,4/18/19,N/A,ICE Non-Dedicated Facility,41.37947869,-74.34665593
ORANGE COUNTY JAIL,3855 SOUTH JOHN YOUNG PARKWAY,ORLANDO,FL,32839,MIA,USMS IGA,Female/Male,3,Under 72,NDS,9/21/18,N/A,ICE Non-Dedicated Facility,28.48832112,-81.40715425
OTERO COUNTY PRISON FACILITY,10 MCGREGOR RANGE ROAD,CHAPARRAL,NM,88081,ELP,USMS IGA,Female/Male,0,Over 72,NDS,2/9/17,N/A,ICE Non-Dedicated Facility,32.22387951,-106.2630949
PENNINGTON COUNTY JAIL (SOUTH DAKOTA),307 SAINT JOSEPH STREET,RAPID CITY,SD,57701,SPM,USMS IGA,Female/Male,0,Over 72,NDS,9/24/18,N/A,ICE Non-Dedicated Facility,44.14147998,-103.2051834
PHELPS COUNTY JAIL,715 5TH AVENUE,HOLDREGE,NE,68949,SPM,USMS IGA,Female/Male,6,Over 72,NDS,7/18/19,N/A,ICE Non-Dedicated Facility,40.42913279,-99.38990893
PIKE COUNTY CORRECTIONAL FACILITY,175 PIKE COUNTY BOULEVARD,LORDS VALLEY,PA,18428,PHI,IGSA,Male,192,Over 72,PBNDS 2008,4/25/19,N/A,ICE Non-Dedicated Facility,41.41618081,-75.12305993
PINELLAS COUNTY JAIL,14400 49TH STREET NORTH,CLEARWATER,FL,33762,MIA,USMS IGA,Female/Male,6,Under 72,NDS,9/21/18,N/A,ICE Non-Dedicated Facility,27.89840927,-82.67935864
PLATTE COUNTY DETENTION CENTER,415 THIRD STREET,PLATTE CITY,MO,64079,CHI,IGSA,Female/Male,10,Over 72,NDS,12/12/19,N/A,ICE Non-Dedicated Facility,39.35780538,-94.79590937
PLATTE COUNTY JAIL,850 MAPLE STREET,WHEATLAND,WY,82201,DEN,USMS IGA,Female/Male,1,Under 72,NDS,9/18/18,N/A,ICE Non-Dedicated Facility,42.01851838,-105.1468492
PLYMOUTH COUNTY CORRECTIONAL FACILITY,26 LONG POND ROAD,PLYMOUTH,MA,2360,BOS,IGSA,Male,309,Over 72,NDS,6/13/19,N/A,ICE Non-Dedicated Facility,41.88322597,-70.63064821
POLK COUNTY JAIL,1985 NE 51ST PLACE,DES MOINES,IA,50313,SPM,USMS IGA,Female/Male,32,Over 72,NDS,8/1/19,N/A,ICE Non-Dedicated Facility,41.65459806,-93.62155911
POTTAWATTAMIE COUNTY JAIL,1400 BIG LAKE ROAD,COUNCIL BLUFFS,IA,51501,SPM,USMS IGA,Female/Male,3,Over 72,NDS,4/12/18,N/A,ICE Non-Dedicated Facility,41.22799858,-95.87890942
PULASKI COUNTY JAIL,1026 SHAWNEE COLLEGE ROAD,ULLIN,IL,62992,CHI,IGSA,Female/Male,152,Over 72,PBNDS 2011,3/14/19,N/A,ICE Non-Dedicated Facility,37.27903893,-89.1667063
RANDALL COUNTY JAIL,9100 SOUTH GEORGIA STREET,AMARILLO,TX,79118,DAL,USMS IGA,Female/Male,2,Under 72,NDS,10/11/17,N/A,ICE Non-Dedicated Facility,35.09861929,-101.7388407
RICHWOOD CORRECTIONAL CENTER,180 PINE BAYOU CIRCLE,RICHWOOD,LA,71202,NOL,IGSA,Male,785,Over 72,PBNDS 2011,10/3/19,N/A,ICE Non-Dedicated Facility,32.39592354,-92.05624843
RIO GRANDE COUNTY JAIL,640 CHERRY STREET,DEL NORTE,CO,81132,DEN,IGSA,Female/Male,0,Under 72,NDS,7/12/18,N/A,ICE Non-Dedicated Facility,37.70743459,-106.4288355
RIVER CORRECTIONAL CENTER,26362 HIGHWAY 15,FERRIDAY,LA,71334,NOL,IGSA,Male,397,Over 72,NDS,10/24/19,N/A,ICE Non-Dedicated Facility,31.65640854,-91.56304803
ROANOKE CITY JAIL,340 CAMPBELL AVENUE SOUTHWEST,ROANOKE,VA,24016,WAS,USMS IGA,Female/Male,0,Under 72,NDS,9/27/17,N/A,ICE Non-Dedicated Facility,37.272924,-79.95409259
ROCKINGHAM COUNTY JAIL,25 SOUTH LIBERTY STREET,HARRISONBURG,VA,22801,WAS,USMS IGA,Female/Male,1,Under 72,NDS,9/27/17,N/A,ICE Non-Dedicated Facility,38.40495906,-78.87700876
ROLLING PLAINS DETENTION CENTER,118 COUNTY ROAD 206,HASKELL,TX,79521,DAL,USMS IGA,Female/Male,86,Over 72,NDS,8/8/19,N/A,ICE Non-Dedicated Facility,33.12232746,-99.65415022
SAINT CLAIR COUNTY JAIL,1170 MICHIGAN ROAD,PORT HURON,MI,48060,DET,IGSA,Male,58,Over 72,PBNDS 2008,10/31/19,N/A,ICE Non-Dedicated Facility,42.98186639,-82.46007761
SAINT TAMMANY PARISH JAIL,701 NORTH COLUMBIA STREET,COVINGTON,LA,70433,NOL,IGSA,Female/Male,9,Under 72,NDS,10/5/18,N/A,ICE Non-Dedicated Facility,30.4632755,-90.13838778
SALT LAKE COUNTY METRO JAIL,3415 SOUTH 900 WEST,SALT LAKE CITY,UT,84119,SLC,USMS IGA,Female/Male,2,Under 72,NDS,9/15/18,N/A,ICE Non-Dedicated Facility,40.70157329,-111.9461131
SAN LUIS REGIONAL DETENTION CENTER,406 NORTH AVENUE D,SAN LUIS,AZ,85349,SND,IGSA,Female/Male,52,Over 72,NDS,5/2/19,N/A,ICE Non-Dedicated Facility,32.49746888,-114.7524208
SANTA CRUZ COUNTY JAIL,1250 NORTH HOHOKAM DRIVE,NOGALES,AZ,85621,PHO,USMS IGA,Female/Male,0,Under 72,NDS,9/27/18,N/A,ICE Non-Dedicated Facility,31.42299999,-111.0404257
SEBASTIAN COUNTY DETENTION CENTER,801 SOUTH A STREET,FORT SMITH,AR,72901,NOL,USMS IGA,Female/Male,1,Under 72,NDS,10/1/18,N/A,ICE Non-Dedicated Facility,35.36641443,-94.41577143
SENECA COUNTY JAIL,3040 SOUTH STATE HIGHWAY 100,TIFFIN,OH,44883,DET,IGSA,Female/Male,55,Over 72,NDS,10/3/19,N/A,ICE Non-Dedicated Facility,41.1237714,-83.1733493
SHAWNEE COUNTY DEPARTMENT OF CORRECTIONS,501 SOUTHEAST 8TH AVENUE,TOPEKA,KS,66607,CHI,IGSA,Female/Male,2,Over 72,NDS,9/6/19,N/A,ICE Non-Dedicated Facility,39.04234103,-95.63572694
SHAWNEE COUNTY JUVENILE DETENTION CENTER,401 SE 8TH STREET,TOPEKA,KS,66607,CHI,JUVENILE,Female/Male,0,Under 72,JFRMU Juvenile,9/30/19,N/A,ICE Non-Dedicated Facility,39.04234103,-95.63572694
SHERBURNE COUNTY JAIL,13880 BUSINESS CENTER DRIVE,ELK RIVER,MN,55330,SPM,IGSA,Female/Male,305,Over 72,NDS,11/15/19,N/A,ICE Non-Dedicated Facility,45.33432288,-93.56818447
SOUTH CENTRAL REGIONAL JAIL,1001 CENTRE WAY,CHARLESTON,WV,25309,PHI,USMS IGA,Female/Male,5,Over 72,NDS,8/23/18,N/A,ICE Non-Dedicated Facility,38.30849113,-81.75057308
SOUTH LOUISIANA DETENTION CENTER,3843 STAGG AVENUE,BASILE,LA,70515,NOL,IGSA,Female/Male,676,Over 72,PBNDS 2011,11/7/19,N/A,ICE Non-Dedicated Facility,30.45217086,-92.56948523
STRAFFORD COUNTY CORRECTIONS,266 COUNTY FARM ROAD,DOVER,NH,3820,BOS,IGSA,Female/Male,83,Over 72,PBNDS 2008,12/12/19,N/A,ICE Non-Dedicated Facility,43.18877957,-70.88680835
SUFFOLK COUNTY HOUSE OF CORRECTIONS,20 BRADSTON STREET,BOSTON,MA,2118,BOS,IGSA,Female/Male,8,Over 72,NDS,5/16/19,N/A,ICE Non-Dedicated Facility,42.3381858,-71.07068615
TALLAHATCHIE CO CORR FACILITY,415 U.S. HIGHWAY 49 North,TUTWILER,MS,38963,NOL,USMS IGA,Male,299,Over 72,NDS,8/15/19,N/A,ICE Non-Dedicated Facility,34.0220375,-90.38976784
TELLER COUNTY JAIL,288 WEAVERVILLE ROAD,DIVIDE,CO,80814,DEN,IGSA,Female/Male,22,Over 72,NDS,8/22/19,N/A,ICE Non-Dedicated Facility,38.95727996,-105.1803925
TOOELE COUNTY JAIL,47 SOUTH MAIN STREET,TOOELE,UT,84074,SLC,USMS IGA,Female/Male,1,Under 72,NDS,9/15/18,N/A,ICE Non-Dedicated Facility,40.55928028,-112.2732721
TORRANCE COUNTY DETENTION FACILITY,209 COUNTY ROAD 49,ESTANCIA,NM,87016,ELP,IGSA,Male,293,Over 72,PBNDS 2011,11/21/19,N/A,ICE Non-Dedicated Facility,34.7780202,-105.9220004
TULSA COUNTY JAIL (DAVID L. MOSS JUSTICE CTR),300 NORTH DENVER AVENUE,TULSA,OK,74103,DAL,IGSA,Female/Male,61,Over 72,PBNDS 2011,1/25/19,N/A,ICE Non-Dedicated Facility,36.15560048,-95.99455671
VAL VERDE CORRECTIONAL FACILITY,253 FARM TO MARKET 2523,DEL RIO,TX,78840,SNA,USMS IGA,Female/Male,1,Under 72,NDS,9/19/19,N/A,ICE Non-Dedicated Facility,29.7401719,-100.8822026
WAKE COUNTY SHERIFF DEPARTMENT,330 SOUTH SALISBURY STREET,RALEIGH,NC,27601,ATL,IGSA,Female/Male,0,Under 72,NDS,10/15/18,N/A,ICE Non-Dedicated Facility,35.77363214,-78.63445682
WAKULLA COUNTY JAIL,15 OAK STREET,CRAWFORDVILLE,FL,32327,MIA,IGSA,Male,89,Over 72,NDS,10/18/19,N/A,ICE Non-Dedicated Facility,30.18258673,-84.30370095
WASHINGTON COUNTY JAIL (PURGATORY CORRECTIONAL FAC,750 SOUTH 5400 WEST,HURRICANE,UT,84737,SLC,USMS IGA,Female/Male,6,Over 72,NDS,9/15/18,N/A,ICE Non-Dedicated Facility,37.09784548,-113.2329568
WASHOE COUNTY JAIL,911 PARR BOULEVARD,RENO,NV,89512,SLC,USMS IGA,Female/Male,14,Over 72,NDS,8/30/18,N/A,ICE Non-Dedicated Facility,39.55289831,-119.8007243
WEST TEXAS DETENTION FACILITY,401 S. VAQUERO AVE.,SIERRA BLANCA,TX,79851,ELP,USMS IGA,Female/Male,85,Over 72,NDS,8/8/19,N/A,ICE Non-Dedicated Facility,31.28846632,-105.319782
WESTERN TENNESSEE DETENTION FACILITY,6299 FINDE NAIFEH DRIVE,MASON,TN,38049,NOL,USMS IGA,Female/Male,3,Over 72,PBNDS 2008,1/16/20,N/A,ICE Non-Dedicated Facility,35.39031013,-89.54864514
WHITFIELD COUNTY JAIL,805 PROFESSIONAL BLVD,DALTON,GA,30720,ATL,IGSA,Female/Male,2,Under 72,NDS,10/16/18,N/A,ICE Non-Dedicated Facility,34.73464003,-85.00296896
WILLACY CO  REGIONAL DETENTION FACILITY,1601 BUFFALO DRIVE,RAYMONDVILLE,TX,78580,SNA,USMS IGA,Female/Male,0,Over 72,NDS,9/12/19,N/A,ICE Non-Dedicated Facility,26.48680454,-97.73827443
WINN CORRECTIONAL CENTER,560 GUM SPRING ROAD,WINNFIELD,LA,71483,NOL,IGSA,Male,"1,297",Over 72,PBNDS 2011,10/10/19,N/A,ICE Non-Dedicated Facility,31.89395859,-92.66150435
WORCESTER COUNTY JAIL,5022 JOYNER ROAD,SNOW HILL,MD,21863,BAL,IGSA,Female/Male,132,Over 72,NDS,8/15/19,N/A,ICE Non-Dedicated Facility,38.19239735,-75.39843446
WYATT DETENTION CENTER,950 HIGH STREET,CENTRAL FALLS,RI,2863,BOS,USMS IGA,Male,99,Over 72,NDS,4/11/19,N/A,ICE Non-Dedicated Facility,41.88991006,-71.3934824
YAKIMA COUNTY DEPARTMENT OF CORRECTIONS,111 NORTH FRONT STREET,YAKIMA,WA,98901,SEA,USMS IGA,Female/Male,1,Under 72,NDS,10/2/17,N/A,ICE Non-Dedicated Facility,46.69318373,-120.415293
YANKTON COUNTY JAIL,410 WALNUT STREET,YANKTON,SD,57078,SPM,USMS IGA,Female/Male,2,Under 72,NDS,9/24/18,N/A,ICE Non-Dedicated Facility,42.91597912,-97.44368164
YORK COUNTY DETENTION CENTER,1675-3A YORK HWY,YORK,SC,29745,ATL,USMS IGA,Female/Male,0,Under 72,NDS,8/11/16,N/A,ICE Non-Dedicated Facility,34.99485398,-81.21599995
YORK COUNTY PRISON,3400 CONCORD ROAD,YORK,PA,17402,PHI,IGSA,Female/Male,490,Over 72,PBNDS 2008,10/18/19,N/A,ICE Non-Dedicated Facility,39.95900117,-76.65916786
YUBA COUNTY JAIL,215 5TH STREET,MARYSVILLE,CA,95901,SFR,IGSA,Female/Male,177,Over 72,NDS,11/15/19,N/A,ICE Non-Dedicated Facility,39.22180231,-121.4915787